{
  "type": "FeatureCollection",
  "features": [
    {
      "type": "Feature",
      "properties": {
        "id": "00011",
        "from_date": "1980-09-01T00:00:00Z",
        "to_date": "2020-09-30T00:00:00Z",
        "height": 680.0,
        "name": "Donaueschingen (Landeplatz)",
        "state": "Baden-Württemberg"
      },
      "geometry": { "type": "Point", "coordinates": [8.5205, 47.9737] }
    },
    {
      "type": "Feature",
      "properties": {
        "id": "00044",
        "from_date": "1969-01-01T00:00:00Z",
        "to_date": "2022-07-05T00:00:00Z",
        "height": 44.0,
        "name": "Großenkneten",
        "state": "Niedersachsen"
      },
      "geometry": { "type": "Point", "coordinates": [8.237, 52.9336] }
    },
    {
      "type": "Feature",
      "properties": {
        "id": "00071",
        "from_date": "1986-11-01T00:00:00Z",
        "to_date": "2019-12-31T00:00:00Z",
        "height": 759.0,
        "name": "Albstadt-Badkap",
        "state": "Baden-Württemberg"
      },
      "geometry": { "type": "Point", "coordinates": [8.9784, 48.2156] }
    },
    {
      "type": "Feature",
      "properties": {
        "id": "00073",
        "from_date": "1959-03-01T00:00:00Z",
        "to_date": "2022-07-05T00:00:00Z",
        "height": 340.0,
        "name": "Aldersbach-Kriestorf",
        "state": "Bayern"
      },
      "geometry": { "type": "Point", "coordinates": [13.0506, 48.6159] }
    },
    {
      "type": "Feature",
      "properties": {
        "id": "00078",
        "from_date": "1961-01-01T00:00:00Z",
        "to_date": "2022-07-05T00:00:00Z",
        "height": 65.0,
        "name": "Alfhausen",
        "state": "Niedersachsen"
      },
      "geometry": { "type": "Point", "coordinates": [7.9126, 52.4853] }
    },
    {
      "type": "Feature",
      "properties": {
        "id": "00090",
        "from_date": "1988-02-19T00:00:00Z",
        "to_date": "2022-07-05T00:00:00Z",
        "height": 305.0,
        "name": "Alsfeld",
        "state": "Hessen"
      },
      "geometry": { "type": "Point", "coordinates": [9.2583, 50.7557] }
    },
    {
      "type": "Feature",
      "properties": {
        "id": "00091",
        "from_date": "1978-11-01T00:00:00Z",
        "to_date": "2022-07-05T00:00:00Z",
        "height": 300.0,
        "name": "Alsfeld-Eifa",
        "state": "Hessen"
      },
      "geometry": { "type": "Point", "coordinates": [9.345, 50.7446] }
    },
    {
      "type": "Feature",
      "properties": {
        "id": "00096",
        "from_date": "2019-04-09T00:00:00Z",
        "to_date": "2022-07-05T00:00:00Z",
        "height": 50.0,
        "name": "Neuruppin-Alt Ruppin",
        "state": "Brandenburg"
      },
      "geometry": { "type": "Point", "coordinates": [12.8518, 52.9437] }
    },
    {
      "type": "Feature",
      "properties": {
        "id": "00102",
        "from_date": "1998-01-01T00:00:00Z",
        "to_date": "2022-07-05T00:00:00Z",
        "height": 32.0,
        "name": "Leuchtturm Alte Weser",
        "state": "Niedersachsen"
      },
      "geometry": { "type": "Point", "coordinates": [8.1275, 53.8633] }
    },
    {
      "type": "Feature",
      "properties": {
        "id": "00125",
        "from_date": "1974-03-01T00:00:00Z",
        "to_date": "2022-07-05T00:00:00Z",
        "height": 742.0,
        "name": "Altenstadt",
        "state": "Bayern"
      },
      "geometry": { "type": "Point", "coordinates": [10.8667, 47.8342] }
    },
    {
      "type": "Feature",
      "properties": {
        "id": "00131",
        "from_date": "2004-11-01T00:00:00Z",
        "to_date": "2022-07-05T00:00:00Z",
        "height": 296.0,
        "name": "Geringswalde-Altgeringswalde",
        "state": "Sachsen"
      },
      "geometry": { "type": "Point", "coordinates": [12.9326, 51.0881] }
    },
    {
      "type": "Feature",
      "properties": {
        "id": "00142",
        "from_date": "1955-01-01T00:00:00Z",
        "to_date": "2022-07-05T00:00:00Z",
        "height": 511.0,
        "name": "Altomünster-Maisbrunn",
        "state": "Bayern"
      },
      "geometry": { "type": "Point", "coordinates": [11.3117, 48.406] }
    },
    {
      "type": "Feature",
      "properties": {
        "id": "00150",
        "from_date": "1951-01-01T00:00:00Z",
        "to_date": "2022-07-05T00:00:00Z",
        "height": 215.0,
        "name": "Alzey",
        "state": "Rheinland-Pfalz"
      },
      "geometry": { "type": "Point", "coordinates": [8.1164, 49.7273] }
    },
    {
      "type": "Feature",
      "properties": {
        "id": "00151",
        "from_date": "1947-01-01T00:00:00Z",
        "to_date": "2022-07-05T00:00:00Z",
        "height": 382.0,
        "name": "Amberg-Unterammersricht",
        "state": "Bayern"
      },
      "geometry": { "type": "Point", "coordinates": [11.8546, 49.4691] }
    },
    {
      "type": "Feature",
      "properties": {
        "id": "00154",
        "from_date": "1994-01-01T00:00:00Z",
        "to_date": "2022-07-05T00:00:00Z",
        "height": 516.0,
        "name": "Amerang-Pfaffing",
        "state": "Bayern"
      },
      "geometry": { "type": "Point", "coordinates": [12.2925, 48.0197] }
    },
    {
      "type": "Feature",
      "properties": {
        "id": "00161",
        "from_date": "1980-12-01T00:00:00Z",
        "to_date": "2022-07-05T00:00:00Z",
        "height": 75.0,
        "name": "Andernach",
        "state": "Rheinland-Pfalz"
      },
      "geometry": { "type": "Point", "coordinates": [7.4202, 50.4237] }
    },
    {
      "type": "Feature",
      "properties": {
        "id": "00164",
        "from_date": "1908-05-17T00:00:00Z",
        "to_date": "2022-07-05T00:00:00Z",
        "height": 54.0,
        "name": "Angermünde",
        "state": "Brandenburg"
      },
      "geometry": { "type": "Point", "coordinates": [13.9908, 53.0316] }
    },
    {
      "type": "Feature",
      "properties": {
        "id": "00167",
        "from_date": "2004-09-01T00:00:00Z",
        "to_date": "2022-07-05T00:00:00Z",
        "height": 11.0,
        "name": "Anklam",
        "state": "Mecklenburg-Vorpommern"
      },
      "geometry": { "type": "Point", "coordinates": [13.6854, 53.8408] }
    },
    {
      "type": "Feature",
      "properties": {
        "id": "00183",
        "from_date": "1947-01-01T00:00:00Z",
        "to_date": "2022-07-05T00:00:00Z",
        "height": 42.0,
        "name": "Arkona",
        "state": "Mecklenburg-Vorpommern"
      },
      "geometry": { "type": "Point", "coordinates": [13.4344, 54.6791] }
    },
    {
      "type": "Feature",
      "properties": {
        "id": "00191",
        "from_date": "1986-04-01T00:00:00Z",
        "to_date": "2022-07-05T00:00:00Z",
        "height": 217.0,
        "name": "Arnstein-Müdesheim",
        "state": "Bayern"
      },
      "geometry": { "type": "Point", "coordinates": [9.9114, 49.9694] }
    },
    {
      "type": "Feature",
      "properties": {
        "id": "00197",
        "from_date": "1990-08-01T00:00:00Z",
        "to_date": "2022-07-05T00:00:00Z",
        "height": 365.0,
        "name": "Arolsen-Volkhardinghausen, Bad",
        "state": "Hessen"
      },
      "geometry": { "type": "Point", "coordinates": [9.0558, 51.3218] }
    },
    {
      "type": "Feature",
      "properties": {
        "id": "00198",
        "from_date": "1954-01-01T00:00:00Z",
        "to_date": "2022-07-05T00:00:00Z",
        "height": 164.0,
        "name": "Artern",
        "state": "Thüringen"
      },
      "geometry": { "type": "Point", "coordinates": [11.292, 51.3744] }
    },
    {
      "type": "Feature",
      "properties": {
        "id": "00217",
        "from_date": "1941-01-01T00:00:00Z",
        "to_date": "2022-07-05T00:00:00Z",
        "height": 670.0,
        "name": "Attenkam",
        "state": "Bayern"
      },
      "geometry": { "type": "Point", "coordinates": [11.3643, 47.8774] }
    },
    {
      "type": "Feature",
      "properties": {
        "id": "00222",
        "from_date": "1977-01-01T00:00:00Z",
        "to_date": "2022-07-05T00:00:00Z",
        "height": 393.0,
        "name": "Aue",
        "state": "Sachsen"
      },
      "geometry": { "type": "Point", "coordinates": [12.7139, 50.5908] }
    },
    {
      "type": "Feature",
      "properties": {
        "id": "00232",
        "from_date": "1947-01-01T00:00:00Z",
        "to_date": "2022-07-05T00:00:00Z",
        "height": 462.0,
        "name": "Augsburg",
        "state": "Bayern"
      },
      "geometry": { "type": "Point", "coordinates": [10.9417, 48.4253] }
    },
    {
      "type": "Feature",
      "properties": {
        "id": "00257",
        "from_date": "1949-01-01T00:00:00Z",
        "to_date": "2022-07-05T00:00:00Z",
        "height": 240.0,
        "name": "Baden-Baden-Geroldsau",
        "state": "Baden-Württemberg"
      },
      "geometry": { "type": "Point", "coordinates": [8.2457, 48.727] }
    },
    {
      "type": "Feature",
      "properties": {
        "id": "00259",
        "from_date": "1947-01-01T00:00:00Z",
        "to_date": "2022-07-05T00:00:00Z",
        "height": 275.0,
        "name": "Müllheim",
        "state": "Baden-Württemberg"
      },
      "geometry": { "type": "Point", "coordinates": [7.6387, 47.8064] }
    },
    {
      "type": "Feature",
      "properties": {
        "id": "00282",
        "from_date": "1949-01-01T00:00:00Z",
        "to_date": "2022-07-05T00:00:00Z",
        "height": 240.0,
        "name": "Bamberg",
        "state": "Bayern"
      },
      "geometry": { "type": "Point", "coordinates": [10.9206, 49.8743] }
    },
    {
      "type": "Feature",
      "properties": {
        "id": "00294",
        "from_date": "1992-02-01T00:00:00Z",
        "to_date": "2022-07-05T00:00:00Z",
        "height": 110.0,
        "name": "Barsinghausen-Hohenbostel",
        "state": "Niedersachsen"
      },
      "geometry": { "type": "Point", "coordinates": [9.43, 52.3199] }
    },
    {
      "type": "Feature",
      "properties": {
        "id": "00298",
        "from_date": "1947-01-01T00:00:00Z",
        "to_date": "2022-07-05T00:00:00Z",
        "height": 3.0,
        "name": "Barth",
        "state": "Mecklenburg-Vorpommern"
      },
      "geometry": { "type": "Point", "coordinates": [12.7108, 54.3405] }
    },
    {
      "type": "Feature",
      "properties": {
        "id": "00303",
        "from_date": "1993-08-20T00:00:00Z",
        "to_date": "2022-07-04T00:00:00Z",
        "height": 54.0,
        "name": "Baruth",
        "state": "Brandenburg"
      },
      "geometry": { "type": "Point", "coordinates": [13.4997, 52.0613] }
    },
    {
      "type": "Feature",
      "properties": {
        "id": "00314",
        "from_date": "1936-01-01T00:00:00Z",
        "to_date": "2022-07-05T00:00:00Z",
        "height": 234.0,
        "name": "Kubschütz, Kr. Bautzen",
        "state": "Sachsen"
      },
      "geometry": { "type": "Point", "coordinates": [14.5042, 51.1604] }
    },
    {
      "type": "Feature",
      "properties": {
        "id": "00320",
        "from_date": "1879-01-01T00:00:00Z",
        "to_date": "2022-07-05T00:00:00Z",
        "height": 350.0,
        "name": "Heinersreuth-Vollhof",
        "state": "Bayern"
      },
      "geometry": { "type": "Point", "coordinates": [11.5198, 49.9666] }
    },
    {
      "type": "Feature",
      "properties": {
        "id": "00330",
        "from_date": "1937-01-01T00:00:00Z",
        "to_date": "2022-07-05T00:00:00Z",
        "height": 455.0,
        "name": "Oberzent-Beerfelden",
        "state": "Hessen"
      },
      "geometry": { "type": "Point", "coordinates": [8.9673, 49.5617] }
    },
    {
      "type": "Feature",
      "properties": {
        "id": "00342",
        "from_date": "2010-12-01T00:00:00Z",
        "to_date": "2022-07-05T00:00:00Z",
        "height": 103.0,
        "name": "Belm",
        "state": "Niedersachsen"
      },
      "geometry": { "type": "Point", "coordinates": [8.1694, 52.317] }
    },
    {
      "type": "Feature",
      "properties": {
        "id": "00368",
        "from_date": "1973-01-01T00:00:00Z",
        "to_date": "2022-07-05T00:00:00Z",
        "height": 69.0,
        "name": "Bergen",
        "state": "Niedersachsen"
      },
      "geometry": { "type": "Point", "coordinates": [9.9248, 52.8152] }
    },
    {
      "type": "Feature",
      "properties": {
        "id": "00377",
        "from_date": "1947-01-01T00:00:00Z",
        "to_date": "2022-07-05T00:00:00Z",
        "height": 210.0,
        "name": "Bergzabern, Bad",
        "state": "Rheinland-Pfalz"
      },
      "geometry": { "type": "Point", "coordinates": [7.9967, 49.107] }
    },
    {
      "type": "Feature",
      "properties": {
        "id": "00379",
        "from_date": "1954-07-01T00:00:00Z",
        "to_date": "2022-07-05T00:00:00Z",
        "height": 304.0,
        "name": "Berka, Bad (Flugplatz)",
        "state": "Thüringen"
      },
      "geometry": { "type": "Point", "coordinates": [11.2665, 50.9075] }
    },
    {
      "type": "Feature",
      "properties": {
        "id": "00390",
        "from_date": "1986-12-01T00:00:00Z",
        "to_date": "2022-07-05T00:00:00Z",
        "height": 610.0,
        "name": "Berleburg, Bad-Stünzel",
        "state": "Nordrhein-Westfalen"
      },
      "geometry": { "type": "Point", "coordinates": [8.3683, 50.9837] }
    },
    {
      "type": "Feature",
      "properties": {
        "id": "00400",
        "from_date": "1961-01-01T00:00:00Z",
        "to_date": "2022-07-05T00:00:00Z",
        "height": 60.0,
        "name": "Berlin-Buch",
        "state": "Berlin"
      },
      "geometry": { "type": "Point", "coordinates": [13.5021, 52.631] }
    },
    {
      "type": "Feature",
      "properties": {
        "id": "00403",
        "from_date": "1950-01-01T00:00:00Z",
        "to_date": "2022-07-05T00:00:00Z",
        "height": 51.0,
        "name": "Berlin-Dahlem (FU)",
        "state": "Berlin"
      },
      "geometry": { "type": "Point", "coordinates": [13.3017, 52.4537] }
    },
    {
      "type": "Feature",
      "properties": {
        "id": "00410",
        "from_date": "1996-06-01T00:00:00Z",
        "to_date": "2020-10-31T00:00:00Z",
        "height": 33.0,
        "name": "Berlin-Kaniswall",
        "state": "Berlin"
      },
      "geometry": { "type": "Point", "coordinates": [13.7309, 52.404] }
    },
    {
      "type": "Feature",
      "properties": {
        "id": "00420",
        "from_date": "1993-05-01T00:00:00Z",
        "to_date": "2022-07-05T00:00:00Z",
        "height": 61.0,
        "name": "Berlin-Marzahn",
        "state": "Berlin"
      },
      "geometry": { "type": "Point", "coordinates": [13.5598, 52.5447] }
    },
    {
      "type": "Feature",
      "properties": {
        "id": "00427",
        "from_date": "1957-01-01T00:00:00Z",
        "to_date": "2022-07-05T00:00:00Z",
        "height": 46.0,
        "name": "Berlin Brandenburg",
        "state": "Brandenburg"
      },
      "geometry": { "type": "Point", "coordinates": [13.5306, 52.3807] }
    },
    {
      "type": "Feature",
      "properties": {
        "id": "00430",
        "from_date": "1963-01-01T00:00:00Z",
        "to_date": "2021-05-05T00:00:00Z",
        "height": 36.0,
        "name": "Berlin-Tegel",
        "state": "Berlin"
      },
      "geometry": { "type": "Point", "coordinates": [13.3088, 52.5644] }
    },
    {
      "type": "Feature",
      "properties": {
        "id": "00433",
        "from_date": "1948-01-01T00:00:00Z",
        "to_date": "2022-07-05T00:00:00Z",
        "height": 48.0,
        "name": "Berlin-Tempelhof",
        "state": "Berlin"
      },
      "geometry": { "type": "Point", "coordinates": [13.4021, 52.4675] }
    },
    {
      "type": "Feature",
      "properties": {
        "id": "00445",
        "from_date": "1898-01-01T00:00:00Z",
        "to_date": "2022-07-05T00:00:00Z",
        "height": 85.0,
        "name": "Bernburg/Saale (Nord)",
        "state": "Sachsen-Anhalt"
      },
      "geometry": { "type": "Point", "coordinates": [11.711, 51.8218] }
    },
    {
      "type": "Feature",
      "properties": {
        "id": "00460",
        "from_date": "1951-01-01T00:00:00Z",
        "to_date": "2022-07-05T00:00:00Z",
        "height": 363.0,
        "name": "Berus",
        "state": "Saarland"
      },
      "geometry": { "type": "Point", "coordinates": [6.6868, 49.2641] }
    },
    {
      "type": "Feature",
      "properties": {
        "id": "00535",
        "from_date": "1947-01-01T00:00:00Z",
        "to_date": "2022-07-05T00:00:00Z",
        "height": 417.0,
        "name": "Blankenrath",
        "state": "Rheinland-Pfalz"
      },
      "geometry": { "type": "Point", "coordinates": [7.3079, 50.0372] }
    },
    {
      "type": "Feature",
      "properties": {
        "id": "00555",
        "from_date": "1940-01-01T00:00:00Z",
        "to_date": "2018-10-31T00:00:00Z",
        "height": 101.0,
        "name": "Bochum",
        "state": "Nordrhein-Westfalen"
      },
      "geometry": { "type": "Point", "coordinates": [7.2697, 51.4789] }
    },
    {
      "type": "Feature",
      "properties": {
        "id": "00591",
        "from_date": "1947-01-01T00:00:00Z",
        "to_date": "2022-07-05T00:00:00Z",
        "height": 45.0,
        "name": "Boizenburg",
        "state": "Mecklenburg-Vorpommern"
      },
      "geometry": { "type": "Point", "coordinates": [10.6878, 53.3911] }
    },
    {
      "type": "Feature",
      "properties": {
        "id": "00596",
        "from_date": "1947-01-01T00:00:00Z",
        "to_date": "2022-07-05T00:00:00Z",
        "height": 15.0,
        "name": "Boltenhagen",
        "state": "Mecklenburg-Vorpommern"
      },
      "geometry": { "type": "Point", "coordinates": [11.1908, 54.0027] }
    },
    {
      "type": "Feature",
      "properties": {
        "id": "00603",
        "from_date": "1986-08-01T00:00:00Z",
        "to_date": "2022-07-05T00:00:00Z",
        "height": 147.0,
        "name": "Königswinter-Heiderhof",
        "state": "Nordrhein-Westfalen"
      },
      "geometry": { "type": "Point", "coordinates": [7.204, 50.7293] }
    },
    {
      "type": "Feature",
      "properties": {
        "id": "00617",
        "from_date": "2004-06-01T00:00:00Z",
        "to_date": "2022-07-05T00:00:00Z",
        "height": 47.0,
        "name": "Borken in Westfalen",
        "state": "Nordrhein-Westfalen"
      },
      "geometry": { "type": "Point", "coordinates": [6.8863, 51.873] }
    },
    {
      "type": "Feature",
      "properties": {
        "id": "00619",
        "from_date": "1947-01-01T00:00:00Z",
        "to_date": "2022-07-05T00:00:00Z",
        "height": 12.0,
        "name": "Borkum-Süderstraße",
        "state": "Niedersachsen"
      },
      "geometry": { "type": "Point", "coordinates": [6.6703, 53.5788] }
    },
    {
      "type": "Feature",
      "properties": {
        "id": "00642",
        "from_date": "1966-01-01T00:00:00Z",
        "to_date": "2022-07-05T00:00:00Z",
        "height": 1.0,
        "name": "Brake",
        "state": "Niedersachsen"
      },
      "geometry": { "type": "Point", "coordinates": [8.4969, 53.3517] }
    },
    {
      "type": "Feature",
      "properties": {
        "id": "00656",
        "from_date": "1931-01-01T00:00:00Z",
        "to_date": "2022-07-05T00:00:00Z",
        "height": 607.0,
        "name": "Braunlage",
        "state": "Niedersachsen"
      },
      "geometry": { "type": "Point", "coordinates": [10.6021, 51.7234] }
    },
    {
      "type": "Feature",
      "properties": {
        "id": "00662",
        "from_date": "1961-01-01T00:00:00Z",
        "to_date": "2022-07-05T00:00:00Z",
        "height": 81.0,
        "name": "Braunschweig",
        "state": "Niedersachsen"
      },
      "geometry": { "type": "Point", "coordinates": [10.4464, 52.2915] }
    },
    {
      "type": "Feature",
      "properties": {
        "id": "00691",
        "from_date": "1890-01-01T00:00:00Z",
        "to_date": "2022-07-05T00:00:00Z",
        "height": 4.0,
        "name": "Bremen",
        "state": "Bremen"
      },
      "geometry": { "type": "Point", "coordinates": [8.7981, 53.0451] }
    },
    {
      "type": "Feature",
      "properties": {
        "id": "00701",
        "from_date": "1949-01-01T00:00:00Z",
        "to_date": "2022-07-05T00:00:00Z",
        "height": 7.0,
        "name": "Bremerhaven",
        "state": "Bremen"
      },
      "geometry": { "type": "Point", "coordinates": [8.5761, 53.5332] }
    },
    {
      "type": "Feature",
      "properties": {
        "id": "00704",
        "from_date": "1979-04-01T00:00:00Z",
        "to_date": "2022-07-05T00:00:00Z",
        "height": 11.0,
        "name": "Bremervörde",
        "state": "Niedersachsen"
      },
      "geometry": { "type": "Point", "coordinates": [9.139, 53.4451] }
    },
    {
      "type": "Feature",
      "properties": {
        "id": "00722",
        "from_date": "1896-01-01T00:00:00Z",
        "to_date": "2022-07-01T00:00:00Z",
        "height": 1135.0,
        "name": "Brocken",
        "state": "Sachsen-Anhalt"
      },
      "geometry": { "type": "Point", "coordinates": [10.6183, 51.7986] }
    },
    {
      "type": "Feature",
      "properties": {
        "id": "00755",
        "from_date": "1935-01-01T00:00:00Z",
        "to_date": "2022-07-05T00:00:00Z",
        "height": 340.0,
        "name": "Buchen, Kr. Neckar-Odenwald",
        "state": "Baden-Württemberg"
      },
      "geometry": { "type": "Point", "coordinates": [9.3213, 49.5182] }
    },
    {
      "type": "Feature",
      "properties": {
        "id": "00757",
        "from_date": "1990-10-01T00:00:00Z",
        "to_date": "2022-07-05T00:00:00Z",
        "height": 445.0,
        "name": "Buchenbach",
        "state": "Baden-Württemberg"
      },
      "geometry": { "type": "Point", "coordinates": [7.9983, 47.9625] }
    },
    {
      "type": "Feature",
      "properties": {
        "id": "00760",
        "from_date": "1976-06-01T00:00:00Z",
        "to_date": "2022-07-05T00:00:00Z",
        "height": 82.0,
        "name": "Rosengarten-Klecken",
        "state": "Niedersachsen"
      },
      "geometry": { "type": "Point", "coordinates": [9.9435, 53.3629] }
    },
    {
      "type": "Feature",
      "properties": {
        "id": "00766",
        "from_date": "1965-01-01T00:00:00Z",
        "to_date": "2022-07-05T00:00:00Z",
        "height": 477.0,
        "name": "Büchel (Flugplatz)",
        "state": "Rheinland-Pfalz"
      },
      "geometry": { "type": "Point", "coordinates": [7.0595, 50.1745] }
    },
    {
      "type": "Feature",
      "properties": {
        "id": "00769",
        "from_date": "1972-01-01T00:00:00Z",
        "to_date": "2022-07-05T00:00:00Z",
        "height": 68.0,
        "name": "Bückeburg",
        "state": "Niedersachsen"
      },
      "geometry": { "type": "Point", "coordinates": [9.089, 52.2817] }
    },
    {
      "type": "Feature",
      "properties": {
        "id": "00788",
        "from_date": "1965-01-01T00:00:00Z",
        "to_date": "2022-07-05T00:00:00Z",
        "height": 3.0,
        "name": "Büsum",
        "state": "Schleswig-Holstein"
      },
      "geometry": { "type": "Point", "coordinates": [8.8584, 54.1193] }
    },
    {
      "type": "Feature",
      "properties": {
        "id": "00817",
        "from_date": "1952-10-01T00:00:00Z",
        "to_date": "2022-07-05T00:00:00Z",
        "height": 293.0,
        "name": "Burgwald-Bottendorf",
        "state": "Hessen"
      },
      "geometry": { "type": "Point", "coordinates": [8.8146, 51.0306] }
    },
    {
      "type": "Feature",
      "properties": {
        "id": "00840",
        "from_date": "1989-12-01T00:00:00Z",
        "to_date": "2022-07-05T00:00:00Z",
        "height": 895.0,
        "name": "Carlsfeld",
        "state": "Sachsen"
      },
      "geometry": { "type": "Point", "coordinates": [12.6114, 50.4313] }
    },
    {
      "type": "Feature",
      "properties": {
        "id": "00850",
        "from_date": "1974-08-01T00:00:00Z",
        "to_date": "2022-07-05T00:00:00Z",
        "height": 45.0,
        "name": "Celle",
        "state": "Niedersachsen"
      },
      "geometry": { "type": "Point", "coordinates": [10.0296, 52.5959] }
    },
    {
      "type": "Feature",
      "properties": {
        "id": "00853",
        "from_date": "1882-01-01T00:00:00Z",
        "to_date": "2022-07-05T00:00:00Z",
        "height": 416.0,
        "name": "Chemnitz",
        "state": "Sachsen"
      },
      "geometry": { "type": "Point", "coordinates": [12.872, 50.7913] }
    },
    {
      "type": "Feature",
      "properties": {
        "id": "00856",
        "from_date": "1998-01-01T00:00:00Z",
        "to_date": "2022-07-05T00:00:00Z",
        "height": 551.0,
        "name": "Chieming",
        "state": "Bayern"
      },
      "geometry": { "type": "Point", "coordinates": [12.5404, 47.8843] }
    },
    {
      "type": "Feature",
      "properties": {
        "id": "00867",
        "from_date": "1947-01-01T00:00:00Z",
        "to_date": "2022-07-05T00:00:00Z",
        "height": 344.0,
        "name": "Lautertal-Oberlauter",
        "state": "Bayern"
      },
      "geometry": { "type": "Point", "coordinates": [10.9679, 50.3066] }
    },
    {
      "type": "Feature",
      "properties": {
        "id": "00880",
        "from_date": "1887-01-01T00:00:00Z",
        "to_date": "2022-07-05T00:00:00Z",
        "height": 69.0,
        "name": "Cottbus",
        "state": "Brandenburg"
      },
      "geometry": { "type": "Point", "coordinates": [14.3168, 51.7759] }
    },
    {
      "type": "Feature",
      "properties": {
        "id": "00891",
        "from_date": "1946-01-01T00:00:00Z",
        "to_date": "2022-07-05T00:00:00Z",
        "height": 5.0,
        "name": "Cuxhaven",
        "state": "Niedersachsen"
      },
      "geometry": { "type": "Point", "coordinates": [8.7058, 53.8713] }
    },
    {
      "type": "Feature",
      "properties": {
        "id": "00896",
        "from_date": "1949-07-01T00:00:00Z",
        "to_date": "2022-07-05T00:00:00Z",
        "height": 170.0,
        "name": "Dachwig",
        "state": "Thüringen"
      },
      "geometry": { "type": "Point", "coordinates": [10.8619, 51.0778] }
    },
    {
      "type": "Feature",
      "properties": {
        "id": "00917",
        "from_date": "1995-08-01T00:00:00Z",
        "to_date": "2022-07-05T00:00:00Z",
        "height": 162.0,
        "name": "Darmstadt",
        "state": "Hessen"
      },
      "geometry": { "type": "Point", "coordinates": [8.6779, 49.8809] }
    },
    {
      "type": "Feature",
      "properties": {
        "id": "00953",
        "from_date": "1950-08-01T00:00:00Z",
        "to_date": "2022-07-05T00:00:00Z",
        "height": 481.0,
        "name": "Deuselbach",
        "state": "Rheinland-Pfalz"
      },
      "geometry": { "type": "Point", "coordinates": [7.0542, 49.7619] }
    },
    {
      "type": "Feature",
      "properties": {
        "id": "00954",
        "from_date": "1998-01-01T00:00:00Z",
        "to_date": "2022-07-05T00:00:00Z",
        "height": 0.0,
        "name": "UFS Deutsche Bucht",
        "state": "Hamburg"
      },
      "geometry": { "type": "Point", "coordinates": [7.4587, 54.1796] }
    },
    {
      "type": "Feature",
      "properties": {
        "id": "00963",
        "from_date": "1952-09-01T00:00:00Z",
        "to_date": "2022-07-05T00:00:00Z",
        "height": 38.0,
        "name": "Diepholz",
        "state": "Niedersachsen"
      },
      "geometry": { "type": "Point", "coordinates": [8.3424, 52.5881] }
    },
    {
      "type": "Feature",
      "properties": {
        "id": "00979",
        "from_date": "1947-08-01T00:00:00Z",
        "to_date": "2022-07-05T00:00:00Z",
        "height": 314.0,
        "name": "Dillenburg",
        "state": "Hessen"
      },
      "geometry": { "type": "Point", "coordinates": [8.2672, 50.7364] }
    },
    {
      "type": "Feature",
      "properties": {
        "id": "00983",
        "from_date": "2006-12-01T00:00:00Z",
        "to_date": "2022-07-05T00:00:00Z",
        "height": 419.0,
        "name": "Dillingen/Donau-Fristingen",
        "state": "Bayern"
      },
      "geometry": { "type": "Point", "coordinates": [10.5599, 48.5562] }
    },
    {
      "type": "Feature",
      "properties": {
        "id": "00991",
        "from_date": "1954-09-01T00:00:00Z",
        "to_date": "2022-07-05T00:00:00Z",
        "height": 359.0,
        "name": "Dippoldiswalde-Reinberg",
        "state": "Sachsen"
      },
      "geometry": { "type": "Point", "coordinates": [13.7087, 50.9116] }
    },
    {
      "type": "Feature",
      "properties": {
        "id": "01001",
        "from_date": "1948-07-01T00:00:00Z",
        "to_date": "2022-07-05T00:00:00Z",
        "height": 97.0,
        "name": "Doberlug-Kirchhain",
        "state": "Brandenburg"
      },
      "geometry": { "type": "Point", "coordinates": [13.5747, 51.6451] }
    },
    {
      "type": "Feature",
      "properties": {
        "id": "01011",
        "from_date": "1990-10-11T00:00:00Z",
        "to_date": "2022-07-05T00:00:00Z",
        "height": 442.0,
        "name": "Dörrmoschel-Felsbergerhof",
        "state": "Rheinland-Pfalz"
      },
      "geometry": { "type": "Point", "coordinates": [7.7413, 49.6017] }
    },
    {
      "type": "Feature",
      "properties": {
        "id": "01013",
        "from_date": "1980-04-01T00:00:00Z",
        "to_date": "2022-07-05T00:00:00Z",
        "height": 309.0,
        "name": "Dogern",
        "state": "Baden-Württemberg"
      },
      "geometry": { "type": "Point", "coordinates": [8.1697, 47.6026] }
    },
    {
      "type": "Feature",
      "properties": {
        "id": "01048",
        "from_date": "1934-01-01T00:00:00Z",
        "to_date": "2022-07-05T00:00:00Z",
        "height": 228.0,
        "name": "Dresden-Klotzsche",
        "state": "Sachsen"
      },
      "geometry": { "type": "Point", "coordinates": [13.7543, 51.1278] }
    },
    {
      "type": "Feature",
      "properties": {
        "id": "01050",
        "from_date": "1949-01-01T00:00:00Z",
        "to_date": "2022-07-05T00:00:00Z",
        "height": 112.0,
        "name": "Dresden-Hosterwitz",
        "state": "Sachsen"
      },
      "geometry": { "type": "Point", "coordinates": [13.847, 51.0221] }
    },
    {
      "type": "Feature",
      "properties": {
        "id": "01051",
        "from_date": "1936-01-01T00:00:00Z",
        "to_date": "2022-07-05T00:00:00Z",
        "height": 119.0,
        "name": "Dresden-Strehlen",
        "state": "Sachsen"
      },
      "geometry": { "type": "Point", "coordinates": [13.7751, 51.0249] }
    },
    {
      "type": "Feature",
      "properties": {
        "id": "01052",
        "from_date": "1993-05-01T00:00:00Z",
        "to_date": "2022-07-05T00:00:00Z",
        "height": 80.0,
        "name": "Drewitz bei Burg",
        "state": "Sachsen-Anhalt"
      },
      "geometry": { "type": "Point", "coordinates": [12.1641, 52.2174] }
    },
    {
      "type": "Feature",
      "properties": {
        "id": "01072",
        "from_date": "1952-01-01T00:00:00Z",
        "to_date": "2022-07-05T00:00:00Z",
        "height": 107.0,
        "name": "Dürkheim, Bad",
        "state": "Rheinland-Pfalz"
      },
      "geometry": { "type": "Point", "coordinates": [8.1929, 49.4719] }
    },
    {
      "type": "Feature",
      "properties": {
        "id": "01078",
        "from_date": "1952-01-01T00:00:00Z",
        "to_date": "2022-07-05T00:00:00Z",
        "height": 37.0,
        "name": "Düsseldorf",
        "state": "Nordrhein-Westfalen"
      },
      "geometry": { "type": "Point", "coordinates": [6.7686, 51.296] }
    },
    {
      "type": "Feature",
      "properties": {
        "id": "01103",
        "from_date": "1978-01-01T00:00:00Z",
        "to_date": "2022-07-05T00:00:00Z",
        "height": 592.0,
        "name": "Ebersberg-Halbing",
        "state": "Bayern"
      },
      "geometry": { "type": "Point", "coordinates": [11.9872, 48.1003] }
    },
    {
      "type": "Feature",
      "properties": {
        "id": "01107",
        "from_date": "1963-01-01T00:00:00Z",
        "to_date": "2022-07-05T00:00:00Z",
        "height": 346.0,
        "name": "Ebrach",
        "state": "Bayern"
      },
      "geometry": { "type": "Point", "coordinates": [10.4991, 49.852] }
    },
    {
      "type": "Feature",
      "properties": {
        "id": "01161",
        "from_date": "1955-01-01T00:00:00Z",
        "to_date": "2022-07-05T00:00:00Z",
        "height": 384.0,
        "name": "Eichstätt-Landershofen",
        "state": "Bayern"
      },
      "geometry": { "type": "Point", "coordinates": [11.2349, 48.8777] }
    },
    {
      "type": "Feature",
      "properties": {
        "id": "01197",
        "from_date": "1941-01-01T00:00:00Z",
        "to_date": "2022-07-05T00:00:00Z",
        "height": 460.0,
        "name": "Ellwangen-Rindelbach",
        "state": "Baden-Württemberg"
      },
      "geometry": { "type": "Point", "coordinates": [10.1312, 48.9895] }
    },
    {
      "type": "Feature",
      "properties": {
        "id": "01200",
        "from_date": "1998-01-01T00:00:00Z",
        "to_date": "2022-07-05T00:00:00Z",
        "height": 3.0,
        "name": "Elpersbüttel",
        "state": "Schleswig-Holstein"
      },
      "geometry": { "type": "Point", "coordinates": [9.0105, 54.0691] }
    },
    {
      "type": "Feature",
      "properties": {
        "id": "01207",
        "from_date": "1948-06-01T00:00:00Z",
        "to_date": "2022-07-05T00:00:00Z",
        "height": 558.0,
        "name": "Elster, Bad-Sohl",
        "state": "Sachsen"
      },
      "geometry": { "type": "Point", "coordinates": [12.2742, 50.2705] }
    },
    {
      "type": "Feature",
      "properties": {
        "id": "01214",
        "from_date": "1987-11-01T00:00:00Z",
        "to_date": "2022-07-05T00:00:00Z",
        "height": 431.0,
        "name": "Elzach-Fisnacht",
        "state": "Baden-Württemberg"
      },
      "geometry": { "type": "Point", "coordinates": [8.1088, 48.2012] }
    },
    {
      "type": "Feature",
      "properties": {
        "id": "01224",
        "from_date": "1975-11-01T00:00:00Z",
        "to_date": "2022-07-05T00:00:00Z",
        "height": 201.0,
        "name": "Emmendingen-Mundingen",
        "state": "Baden-Württemberg"
      },
      "geometry": { "type": "Point", "coordinates": [7.8351, 48.1378] }
    },
    {
      "type": "Feature",
      "properties": {
        "id": "01228",
        "from_date": "2000-07-01T00:00:00Z",
        "to_date": "2022-05-18T00:00:00Z",
        "height": 0.0,
        "name": "UFS TW Ems",
        "state": "Hamburg"
      },
      "geometry": { "type": "Point", "coordinates": [6.346, 54.1651] }
    },
    {
      "type": "Feature",
      "properties": {
        "id": "01246",
        "from_date": "2015-08-01T00:00:00Z",
        "to_date": "2022-07-05T00:00:00Z",
        "height": 104.0,
        "name": "Ennigerloh-Ostenfelde",
        "state": "Nordrhein-Westfalen"
      },
      "geometry": { "type": "Point", "coordinates": [8.0607, 51.8418] }
    },
    {
      "type": "Feature",
      "properties": {
        "id": "01255",
        "from_date": "2002-12-01T00:00:00Z",
        "to_date": "2022-07-05T00:00:00Z",
        "height": 226.0,
        "name": "Eppingen-Elsenz",
        "state": "Baden-Württemberg"
      },
      "geometry": { "type": "Point", "coordinates": [8.8483, 49.1661] }
    },
    {
      "type": "Feature",
      "properties": {
        "id": "01262",
        "from_date": "1992-05-17T00:00:00Z",
        "to_date": "2022-07-05T00:00:00Z",
        "height": 446.0,
        "name": "München-Flughafen",
        "state": "Bayern"
      },
      "geometry": { "type": "Point", "coordinates": [11.8134, 48.3477] }
    },
    {
      "type": "Feature",
      "properties": {
        "id": "01266",
        "from_date": "1964-05-01T00:00:00Z",
        "to_date": "2022-07-05T00:00:00Z",
        "height": 18.0,
        "name": "Erfde",
        "state": "Schleswig-Holstein"
      },
      "geometry": { "type": "Point", "coordinates": [9.3162, 54.2992] }
    },
    {
      "type": "Feature",
      "properties": {
        "id": "01270",
        "from_date": "1951-01-01T00:00:00Z",
        "to_date": "2022-07-05T00:00:00Z",
        "height": 316.0,
        "name": "Erfurt-Weimar",
        "state": "Thüringen"
      },
      "geometry": { "type": "Point", "coordinates": [10.9608, 50.9829] }
    },
    {
      "type": "Feature",
      "properties": {
        "id": "01279",
        "from_date": "1949-01-01T00:00:00Z",
        "to_date": "2022-07-05T00:00:00Z",
        "height": 268.0,
        "name": "Möhrendorf-Kleinseebach",
        "state": "Bayern"
      },
      "geometry": { "type": "Point", "coordinates": [11.0075, 49.6497] }
    },
    {
      "type": "Feature",
      "properties": {
        "id": "01297",
        "from_date": "1947-09-01T00:00:00Z",
        "to_date": "2022-07-05T00:00:00Z",
        "height": 156.0,
        "name": "Eschwege",
        "state": "Hessen"
      },
      "geometry": { "type": "Point", "coordinates": [10.0138, 51.2041] }
    },
    {
      "type": "Feature",
      "properties": {
        "id": "01300",
        "from_date": "1938-01-01T00:00:00Z",
        "to_date": "2022-07-05T00:00:00Z",
        "height": 351.0,
        "name": "Eslohe",
        "state": "Nordrhein-Westfalen"
      },
      "geometry": { "type": "Point", "coordinates": [8.1565, 51.254] }
    },
    {
      "type": "Feature",
      "properties": {
        "id": "01303",
        "from_date": "1935-01-01T00:00:00Z",
        "to_date": "2022-07-05T00:00:00Z",
        "height": 150.0,
        "name": "Essen-Bredeney",
        "state": "Nordrhein-Westfalen"
      },
      "geometry": { "type": "Point", "coordinates": [6.9677, 51.4041] }
    },
    {
      "type": "Feature",
      "properties": {
        "id": "01327",
        "from_date": "1937-01-01T00:00:00Z",
        "to_date": "2022-07-05T00:00:00Z",
        "height": 147.0,
        "name": "Weilerswist-Lommersum",
        "state": "Nordrhein-Westfalen"
      },
      "geometry": { "type": "Point", "coordinates": [6.7905, 50.7119] }
    },
    {
      "type": "Feature",
      "properties": {
        "id": "01332",
        "from_date": "1966-07-01T00:00:00Z",
        "to_date": "2022-07-05T00:00:00Z",
        "height": 471.0,
        "name": "Falkenberg,Kr.Rottal-Inn",
        "state": "Bayern"
      },
      "geometry": { "type": "Point", "coordinates": [12.7241, 48.4832] }
    },
    {
      "type": "Feature",
      "properties": {
        "id": "01339",
        "from_date": "1971-01-01T00:00:00Z",
        "to_date": "2022-07-05T00:00:00Z",
        "height": 76.0,
        "name": "Faßberg",
        "state": "Niedersachsen"
      },
      "geometry": { "type": "Point", "coordinates": [10.1885, 52.9157] }
    },
    {
      "type": "Feature",
      "properties": {
        "id": "01346",
        "from_date": "1945-01-01T00:00:00Z",
        "to_date": "2022-07-05T00:00:00Z",
        "height": 1490.0,
        "name": "Feldberg/Schwarzwald",
        "state": "Baden-Württemberg"
      },
      "geometry": { "type": "Point", "coordinates": [8.0038, 47.8749] }
    },
    {
      "type": "Feature",
      "properties": {
        "id": "01357",
        "from_date": "1948-01-01T00:00:00Z",
        "to_date": "2022-07-05T00:00:00Z",
        "height": 655.0,
        "name": "Fichtelberg/Oberfranken-Hüttstadl",
        "state": "Bayern"
      },
      "geometry": { "type": "Point", "coordinates": [11.8376, 49.9807] }
    },
    {
      "type": "Feature",
      "properties": {
        "id": "01358",
        "from_date": "1890-08-01T00:00:00Z",
        "to_date": "2022-07-05T00:00:00Z",
        "height": 1213.0,
        "name": "Fichtelberg",
        "state": "Sachsen"
      },
      "geometry": { "type": "Point", "coordinates": [12.9536, 50.4283] }
    },
    {
      "type": "Feature",
      "properties": {
        "id": "01379",
        "from_date": "1957-01-01T00:00:00Z",
        "to_date": "2022-07-05T00:00:00Z",
        "height": 41.0,
        "name": "Flensburg (Schäferhaus)",
        "state": "Schleswig-Holstein"
      },
      "geometry": { "type": "Point", "coordinates": [9.3752, 54.7737] }
    },
    {
      "type": "Feature",
      "properties": {
        "id": "01411",
        "from_date": "1949-10-01T00:00:00Z",
        "to_date": "2022-07-05T00:00:00Z",
        "height": 747.0,
        "name": "Birx/Rhön",
        "state": "Thüringen"
      },
      "geometry": { "type": "Point", "coordinates": [10.0479, 50.5309] }
    },
    {
      "type": "Feature",
      "properties": {
        "id": "01420",
        "from_date": "1949-01-01T00:00:00Z",
        "to_date": "2022-07-05T00:00:00Z",
        "height": 100.0,
        "name": "Frankfurt/Main",
        "state": "Hessen"
      },
      "geometry": { "type": "Point", "coordinates": [8.5213, 50.0259] }
    },
    {
      "type": "Feature",
      "properties": {
        "id": "01424",
        "from_date": "1985-11-01T00:00:00Z",
        "to_date": "2022-07-05T00:00:00Z",
        "height": 124.0,
        "name": "Frankfurt/Main-Westend",
        "state": "Hessen"
      },
      "geometry": { "type": "Point", "coordinates": [8.6694, 50.1269] }
    },
    {
      "type": "Feature",
      "properties": {
        "id": "01443",
        "from_date": "1874-01-01T00:00:00Z",
        "to_date": "2022-07-05T00:00:00Z",
        "height": 237.0,
        "name": "Freiburg",
        "state": "Baden-Württemberg"
      },
      "geometry": { "type": "Point", "coordinates": [7.8343, 48.0232] }
    },
    {
      "type": "Feature",
      "properties": {
        "id": "01451",
        "from_date": "1970-11-01T00:00:00Z",
        "to_date": "2022-07-05T00:00:00Z",
        "height": 2.0,
        "name": "Freiburg/Elbe",
        "state": "Niedersachsen"
      },
      "geometry": { "type": "Point", "coordinates": [9.2493, 53.8277] }
    },
    {
      "type": "Feature",
      "properties": {
        "id": "01468",
        "from_date": "1949-01-01T00:00:00Z",
        "to_date": "2022-07-05T00:00:00Z",
        "height": 797.0,
        "name": "Freudenstadt",
        "state": "Baden-Württemberg"
      },
      "geometry": { "type": "Point", "coordinates": [8.409, 48.4538] }
    },
    {
      "type": "Feature",
      "properties": {
        "id": "01473",
        "from_date": "2006-01-01T00:00:00Z",
        "to_date": "2019-02-28T00:00:00Z",
        "height": 414.0,
        "name": "Freystadt-Michelbach",
        "state": "Bayern"
      },
      "geometry": { "type": "Point", "coordinates": [11.308, 49.1869] }
    },
    {
      "type": "Feature",
      "properties": {
        "id": "01490",
        "from_date": "1947-01-01T00:00:00Z",
        "to_date": "2022-07-05T00:00:00Z",
        "height": 394.0,
        "name": "Friedrichshafen",
        "state": "Baden-Württemberg"
      },
      "geometry": { "type": "Point", "coordinates": [9.4795, 47.6454] }
    },
    {
      "type": "Feature",
      "properties": {
        "id": "01503",
        "from_date": "1947-02-01T00:00:00Z",
        "to_date": "2022-07-05T00:00:00Z",
        "height": 6.0,
        "name": "Friesoythe-Altenoythe",
        "state": "Niedersachsen"
      },
      "geometry": { "type": "Point", "coordinates": [7.902, 53.0643] }
    },
    {
      "type": "Feature",
      "properties": {
        "id": "01504",
        "from_date": "2000-07-01T00:00:00Z",
        "to_date": "2022-07-05T00:00:00Z",
        "height": 172.0,
        "name": "Fritzlar (Flugplatz)",
        "state": "Hessen"
      },
      "geometry": { "type": "Point", "coordinates": [9.2799, 51.119] }
    },
    {
      "type": "Feature",
      "properties": {
        "id": "01526",
        "from_date": "1949-01-01T00:00:00Z",
        "to_date": "2022-07-05T00:00:00Z",
        "height": 242.0,
        "name": "Fulda-Horas",
        "state": "Hessen"
      },
      "geometry": { "type": "Point", "coordinates": [9.6532, 50.5668] }
    },
    {
      "type": "Feature",
      "properties": {
        "id": "01544",
        "from_date": "1947-01-01T00:00:00Z",
        "to_date": "2022-07-05T00:00:00Z",
        "height": 47.0,
        "name": "Gardelegen",
        "state": "Sachsen-Anhalt"
      },
      "geometry": { "type": "Point", "coordinates": [11.3942, 52.5129] }
    },
    {
      "type": "Feature",
      "properties": {
        "id": "01550",
        "from_date": "1936-01-01T00:00:00Z",
        "to_date": "2022-07-05T00:00:00Z",
        "height": 719.0,
        "name": "Garmisch-Partenkirchen",
        "state": "Bayern"
      },
      "geometry": { "type": "Point", "coordinates": [11.0621, 47.483] }
    },
    {
      "type": "Feature",
      "properties": {
        "id": "01580",
        "from_date": "1884-07-01T00:00:00Z",
        "to_date": "2022-07-05T00:00:00Z",
        "height": 111.0,
        "name": "Geisenheim",
        "state": "Hessen"
      },
      "geometry": { "type": "Point", "coordinates": [7.9548, 49.9859] }
    },
    {
      "type": "Feature",
      "properties": {
        "id": "01584",
        "from_date": "2009-06-01T00:00:00Z",
        "to_date": "2022-07-05T00:00:00Z",
        "height": 673.0,
        "name": "Geisingen",
        "state": "Baden-Württemberg"
      },
      "geometry": { "type": "Point", "coordinates": [8.6474, 47.9242] }
    },
    {
      "type": "Feature",
      "properties": {
        "id": "01587",
        "from_date": "1998-01-01T00:00:00Z",
        "to_date": "2022-07-05T00:00:00Z",
        "height": 536.0,
        "name": "Gelbelsee",
        "state": "Bayern"
      },
      "geometry": { "type": "Point", "coordinates": [11.4289, 48.9481] }
    },
    {
      "type": "Feature",
      "properties": {
        "id": "01590",
        "from_date": "1963-10-01T00:00:00Z",
        "to_date": "2022-07-05T00:00:00Z",
        "height": 37.0,
        "name": "Geldern-Walbeck",
        "state": "Nordrhein-Westfalen"
      },
      "geometry": { "type": "Point", "coordinates": [6.2463, 51.4942] }
    },
    {
      "type": "Feature",
      "properties": {
        "id": "01602",
        "from_date": "1970-01-01T00:00:00Z",
        "to_date": "2022-07-05T00:00:00Z",
        "height": 177.0,
        "name": "Ohlsbach",
        "state": "Baden-Württemberg"
      },
      "geometry": { "type": "Point", "coordinates": [7.993, 48.433] }
    },
    {
      "type": "Feature",
      "properties": {
        "id": "01605",
        "from_date": "1953-01-01T00:00:00Z",
        "to_date": "2022-07-05T00:00:00Z",
        "height": 35.0,
        "name": "Genthin",
        "state": "Sachsen-Anhalt"
      },
      "geometry": { "type": "Point", "coordinates": [12.1602, 52.3875] }
    },
    {
      "type": "Feature",
      "properties": {
        "id": "01612",
        "from_date": "1952-01-01T00:00:00Z",
        "to_date": "2022-07-05T00:00:00Z",
        "height": 311.0,
        "name": "Gera-Leumnitz",
        "state": "Thüringen"
      },
      "geometry": { "type": "Point", "coordinates": [12.1289, 50.8812] }
    },
    {
      "type": "Feature",
      "properties": {
        "id": "01639",
        "from_date": "1939-01-01T00:00:00Z",
        "to_date": "2022-07-05T00:00:00Z",
        "height": 203.0,
        "name": "Gießen/Wettenberg",
        "state": "Hessen"
      },
      "geometry": { "type": "Point", "coordinates": [8.6439, 50.6017] }
    },
    {
      "type": "Feature",
      "properties": {
        "id": "01645",
        "from_date": "1949-01-01T00:00:00Z",
        "to_date": "2022-07-05T00:00:00Z",
        "height": 340.0,
        "name": "Gilserberg-Moischeid",
        "state": "Hessen"
      },
      "geometry": { "type": "Point", "coordinates": [9.05, 50.9656] }
    },
    {
      "type": "Feature",
      "properties": {
        "id": "01666",
        "from_date": "1971-01-01T00:00:00Z",
        "to_date": "2022-07-05T00:00:00Z",
        "height": 12.0,
        "name": "Glücksburg-Meierwik",
        "state": "Schleswig-Holstein"
      },
      "geometry": { "type": "Point", "coordinates": [9.5058, 54.8273] }
    },
    {
      "type": "Feature",
      "properties": {
        "id": "01684",
        "from_date": "1880-01-01T00:00:00Z",
        "to_date": "2022-07-05T00:00:00Z",
        "height": 239.0,
        "name": "Görlitz",
        "state": "Sachsen"
      },
      "geometry": { "type": "Point", "coordinates": [14.9506, 51.1621] }
    },
    {
      "type": "Feature",
      "properties": {
        "id": "01691",
        "from_date": "1927-01-01T00:00:00Z",
        "to_date": "2022-07-05T00:00:00Z",
        "height": 167.0,
        "name": "Göttingen",
        "state": "Niedersachsen"
      },
      "geometry": { "type": "Point", "coordinates": [9.9507, 51.5002] }
    },
    {
      "type": "Feature",
      "properties": {
        "id": "01694",
        "from_date": "1947-01-01T00:00:00Z",
        "to_date": "2022-07-05T00:00:00Z",
        "height": 59.0,
        "name": "Goldberg",
        "state": "Mecklenburg-Vorpommern"
      },
      "geometry": { "type": "Point", "coordinates": [12.1034, 53.6058] }
    },
    {
      "type": "Feature",
      "properties": {
        "id": "01721",
        "from_date": "1991-01-01T00:00:00Z",
        "to_date": "2022-07-05T00:00:00Z",
        "height": 506.0,
        "name": "Gräfenberg-Kasberg",
        "state": "Bayern"
      },
      "geometry": { "type": "Point", "coordinates": [11.2239, 49.664] }
    },
    {
      "type": "Feature",
      "properties": {
        "id": "01735",
        "from_date": "1995-12-01T00:00:00Z",
        "to_date": "2022-07-05T00:00:00Z",
        "height": 628.0,
        "name": "Grainet-Rehberg",
        "state": "Bayern"
      },
      "geometry": { "type": "Point", "coordinates": [13.629, 48.7894] }
    },
    {
      "type": "Feature",
      "properties": {
        "id": "01736",
        "from_date": "1951-01-01T00:00:00Z",
        "to_date": "2022-07-05T00:00:00Z",
        "height": 27.0,
        "name": "Grambek",
        "state": "Schleswig-Holstein"
      },
      "geometry": { "type": "Point", "coordinates": [10.6797, 53.5731] }
    },
    {
      "type": "Feature",
      "properties": {
        "id": "01757",
        "from_date": "1898-03-01T00:00:00Z",
        "to_date": "2022-07-05T00:00:00Z",
        "height": 2.0,
        "name": "Greifswald",
        "state": "Mecklenburg-Vorpommern"
      },
      "geometry": { "type": "Point", "coordinates": [13.4056, 54.0967] }
    },
    {
      "type": "Feature",
      "properties": {
        "id": "01759",
        "from_date": "1947-08-01T00:00:00Z",
        "to_date": "2022-07-05T00:00:00Z",
        "height": 12.0,
        "name": "Greifswalder Oie",
        "state": "Mecklenburg-Vorpommern"
      },
      "geometry": { "type": "Point", "coordinates": [13.9102, 54.2437] }
    },
    {
      "type": "Feature",
      "properties": {
        "id": "01766",
        "from_date": "1982-01-01T00:00:00Z",
        "to_date": "2022-07-05T00:00:00Z",
        "height": 48.0,
        "name": "Münster/Osnabrück",
        "state": "Nordrhein-Westfalen"
      },
      "geometry": { "type": "Point", "coordinates": [7.6969, 52.1344] }
    },
    {
      "type": "Feature",
      "properties": {
        "id": "01792",
        "from_date": "2020-08-13T00:00:00Z",
        "to_date": "2022-07-05T00:00:00Z",
        "height": 27.0,
        "name": "Groß Berßen",
        "state": "Niedersachsen"
      },
      "geometry": { "type": "Point", "coordinates": [7.4815, 52.7553] }
    },
    {
      "type": "Feature",
      "properties": {
        "id": "01803",
        "from_date": "1967-01-01T00:00:00Z",
        "to_date": "2022-07-05T00:00:00Z",
        "height": 34.0,
        "name": "Groß Lüsewitz",
        "state": "Mecklenburg-Vorpommern"
      },
      "geometry": { "type": "Point", "coordinates": [12.3238, 54.0714] }
    },
    {
      "type": "Feature",
      "properties": {
        "id": "01832",
        "from_date": "1982-11-01T00:00:00Z",
        "to_date": "2022-07-05T00:00:00Z",
        "height": 1436.0,
        "name": "Großer Arber",
        "state": "Bayern"
      },
      "geometry": { "type": "Point", "coordinates": [13.1338, 49.1129] }
    },
    {
      "type": "Feature",
      "properties": {
        "id": "01863",
        "from_date": "1995-03-01T00:00:00Z",
        "to_date": "2022-07-05T00:00:00Z",
        "height": 258.0,
        "name": "Gründau-Breitenborn",
        "state": "Hessen"
      },
      "geometry": { "type": "Point", "coordinates": [9.1854, 50.2667] }
    },
    {
      "type": "Feature",
      "properties": {
        "id": "01869",
        "from_date": "1973-01-01T00:00:00Z",
        "to_date": "2022-07-05T00:00:00Z",
        "height": 56.0,
        "name": "Grünow",
        "state": "Brandenburg"
      },
      "geometry": { "type": "Point", "coordinates": [13.9339, 53.3154] }
    },
    {
      "type": "Feature",
      "properties": {
        "id": "01886",
        "from_date": "2009-11-26T00:00:00Z",
        "to_date": "2022-07-05T00:00:00Z",
        "height": 444.0,
        "name": "Günzburg",
        "state": "Bayern"
      },
      "geometry": { "type": "Point", "coordinates": [10.2608, 48.4878] }
    },
    {
      "type": "Feature",
      "properties": {
        "id": "01963",
        "from_date": "1969-01-01T00:00:00Z",
        "to_date": "2022-07-05T00:00:00Z",
        "height": 4.0,
        "name": "Hallig Hooge",
        "state": "Schleswig-Holstein"
      },
      "geometry": { "type": "Point", "coordinates": [8.5133, 54.5742] }
    },
    {
      "type": "Feature",
      "properties": {
        "id": "01964",
        "from_date": "1952-01-01T00:00:00Z",
        "to_date": "2022-07-05T00:00:00Z",
        "height": 328.0,
        "name": "Olsdorf",
        "state": "Rheinland-Pfalz"
      },
      "geometry": { "type": "Point", "coordinates": [6.3821, 49.9445] }
    },
    {
      "type": "Feature",
      "properties": {
        "id": "01975",
        "from_date": "1936-01-01T00:00:00Z",
        "to_date": "2022-07-05T00:00:00Z",
        "height": 11.0,
        "name": "Hamburg-Fuhlsbüttel",
        "state": "Hamburg"
      },
      "geometry": { "type": "Point", "coordinates": [9.9881, 53.6332] }
    },
    {
      "type": "Feature",
      "properties": {
        "id": "01981",
        "from_date": "1962-05-01T00:00:00Z",
        "to_date": "2022-07-05T00:00:00Z",
        "height": 3.0,
        "name": "Hamburg-Neuwiedenthal",
        "state": "Hamburg"
      },
      "geometry": { "type": "Point", "coordinates": [9.8957, 53.4777] }
    },
    {
      "type": "Feature",
      "properties": {
        "id": "01993",
        "from_date": "1940-01-01T00:00:00Z",
        "to_date": "2022-07-05T00:00:00Z",
        "height": 68.0,
        "name": "Hameln",
        "state": "Niedersachsen"
      },
      "geometry": { "type": "Point", "coordinates": [9.3896, 52.0848] }
    },
    {
      "type": "Feature",
      "properties": {
        "id": "02014",
        "from_date": "1936-01-01T00:00:00Z",
        "to_date": "2022-07-05T00:00:00Z",
        "height": 55.0,
        "name": "Hannover",
        "state": "Niedersachsen"
      },
      "geometry": { "type": "Point", "coordinates": [9.6779, 52.4644] }
    },
    {
      "type": "Feature",
      "properties": {
        "id": "02023",
        "from_date": "1998-01-01T00:00:00Z",
        "to_date": "2022-07-05T00:00:00Z",
        "height": 501.0,
        "name": "Harburg",
        "state": "Bayern"
      },
      "geometry": { "type": "Point", "coordinates": [10.7062, 48.7918] }
    },
    {
      "type": "Feature",
      "properties": {
        "id": "02039",
        "from_date": "1936-01-01T00:00:00Z",
        "to_date": "2022-07-05T00:00:00Z",
        "height": 201.0,
        "name": "Harzburg, Bad",
        "state": "Niedersachsen"
      },
      "geometry": { "type": "Point", "coordinates": [10.5699, 51.9002] }
    },
    {
      "type": "Feature",
      "properties": {
        "id": "02044",
        "from_date": "1945-05-01T00:00:00Z",
        "to_date": "2022-07-05T00:00:00Z",
        "height": 404.0,
        "name": "Harzgerode",
        "state": "Sachsen-Anhalt"
      },
      "geometry": { "type": "Point", "coordinates": [11.1366, 51.652] }
    },
    {
      "type": "Feature",
      "properties": {
        "id": "02074",
        "from_date": "1947-01-01T00:00:00Z",
        "to_date": "2022-07-05T00:00:00Z",
        "height": 518.0,
        "name": "Hechingen",
        "state": "Baden-Württemberg"
      },
      "geometry": { "type": "Point", "coordinates": [8.98, 48.3752] }
    },
    {
      "type": "Feature",
      "properties": {
        "id": "02100",
        "from_date": "2018-12-01T00:00:00Z",
        "to_date": "2019-11-17T00:00:00Z",
        "height": 4.0,
        "name": "Helgoland-Düne",
        "state": "Schleswig-Holstein"
      },
      "geometry": { "type": "Point", "coordinates": [7.9119, 54.186] }
    },
    {
      "type": "Feature",
      "properties": {
        "id": "02110",
        "from_date": "1963-01-01T00:00:00Z",
        "to_date": "2022-07-05T00:00:00Z",
        "height": 57.0,
        "name": "Heinsberg-Schleiden",
        "state": "Nordrhein-Westfalen"
      },
      "geometry": { "type": "Point", "coordinates": [6.1042, 51.0411] }
    },
    {
      "type": "Feature",
      "properties": {
        "id": "02115",
        "from_date": "1952-05-01T00:00:00Z",
        "to_date": "2022-07-05T00:00:00Z",
        "height": 4.0,
        "name": "Helgoland",
        "state": "Schleswig-Holstein"
      },
      "geometry": { "type": "Point", "coordinates": [7.892, 54.175] }
    },
    {
      "type": "Feature",
      "properties": {
        "id": "02171",
        "from_date": "1949-01-01T00:00:00Z",
        "to_date": "2022-07-05T00:00:00Z",
        "height": 272.0,
        "name": "Hersfeld, Bad",
        "state": "Hessen"
      },
      "geometry": { "type": "Point", "coordinates": [9.7377, 50.852] }
    },
    {
      "type": "Feature",
      "properties": {
        "id": "02174",
        "from_date": "1991-10-01T00:00:00Z",
        "to_date": "2022-07-05T00:00:00Z",
        "height": 238.0,
        "name": "Herzberg",
        "state": "Niedersachsen"
      },
      "geometry": { "type": "Point", "coordinates": [10.3695, 51.6255] }
    },
    {
      "type": "Feature",
      "properties": {
        "id": "02201",
        "from_date": "1931-04-14T00:00:00Z",
        "to_date": "2022-07-05T00:00:00Z",
        "height": 1.0,
        "name": "Hiddensee-Vitte",
        "state": "Mecklenburg-Vorpommern"
      },
      "geometry": { "type": "Point", "coordinates": [13.1044, 54.575] }
    },
    {
      "type": "Feature",
      "properties": {
        "id": "02211",
        "from_date": "1937-01-01T00:00:00Z",
        "to_date": "2022-07-05T00:00:00Z",
        "height": 295.0,
        "name": "Hilgenroth",
        "state": "Rheinland-Pfalz"
      },
      "geometry": { "type": "Point", "coordinates": [7.6525, 50.737] }
    },
    {
      "type": "Feature",
      "properties": {
        "id": "02252",
        "from_date": "1947-01-01T00:00:00Z",
        "to_date": "2022-07-05T00:00:00Z",
        "height": 271.0,
        "name": "Bertsdorf-Hörnitz",
        "state": "Sachsen"
      },
      "geometry": { "type": "Point", "coordinates": [14.7456, 50.8992] }
    },
    {
      "type": "Feature",
      "properties": {
        "id": "02261",
        "from_date": "1947-01-01T00:00:00Z",
        "to_date": "2022-07-05T00:00:00Z",
        "height": 565.0,
        "name": "Hof",
        "state": "Bayern"
      },
      "geometry": { "type": "Point", "coordinates": [11.876, 50.3123] }
    },
    {
      "type": "Feature",
      "properties": {
        "id": "02290",
        "from_date": "1781-01-01T00:00:00Z",
        "to_date": "2022-07-05T00:00:00Z",
        "height": 977.0,
        "name": "Hohenpeißenberg",
        "state": "Bayern"
      },
      "geometry": { "type": "Point", "coordinates": [11.0108, 47.8009] }
    },
    {
      "type": "Feature",
      "properties": {
        "id": "02303",
        "from_date": "1969-01-01T00:00:00Z",
        "to_date": "2022-07-05T00:00:00Z",
        "height": 10.0,
        "name": "Hohn",
        "state": "Schleswig-Holstein"
      },
      "geometry": { "type": "Point", "coordinates": [9.5385, 54.3162] }
    },
    {
      "type": "Feature",
      "properties": {
        "id": "02306",
        "from_date": "1977-11-01T00:00:00Z",
        "to_date": "2022-07-05T00:00:00Z",
        "height": 8.0,
        "name": "Hohwacht",
        "state": "Schleswig-Holstein"
      },
      "geometry": { "type": "Point", "coordinates": [10.6732, 54.3194] }
    },
    {
      "type": "Feature",
      "properties": {
        "id": "02315",
        "from_date": "2000-06-01T00:00:00Z",
        "to_date": "2022-07-05T00:00:00Z",
        "height": 80.0,
        "name": "Holzdorf (Flugplatz)",
        "state": "Brandenburg"
      },
      "geometry": { "type": "Point", "coordinates": [13.1666, 51.7657] }
    },
    {
      "type": "Feature",
      "properties": {
        "id": "02319",
        "from_date": "1982-12-01T00:00:00Z",
        "to_date": "2022-07-05T00:00:00Z",
        "height": 685.0,
        "name": "Holzkirchen",
        "state": "Bayern"
      },
      "geometry": { "type": "Point", "coordinates": [11.6961, 47.8823] }
    },
    {
      "type": "Feature",
      "properties": {
        "id": "02323",
        "from_date": "1951-01-01T00:00:00Z",
        "to_date": "2022-07-05T00:00:00Z",
        "height": 110.0,
        "name": "Bevern, Kr. Holzminden",
        "state": "Niedersachsen"
      },
      "geometry": { "type": "Point", "coordinates": [9.4953, 51.8529] }
    },
    {
      "type": "Feature",
      "properties": {
        "id": "02349",
        "from_date": "1953-01-01T00:00:00Z",
        "to_date": "2022-07-05T00:00:00Z",
        "height": 1138.0,
        "name": "Hornisgrinde",
        "state": "Baden-Württemberg"
      },
      "geometry": { "type": "Point", "coordinates": [8.2033, 48.6136] }
    },
    {
      "type": "Feature",
      "properties": {
        "id": "02362",
        "from_date": "1982-10-01T00:00:00Z",
        "to_date": "2022-07-05T00:00:00Z",
        "height": 328.0,
        "name": "Hümmerich",
        "state": "Rheinland-Pfalz"
      },
      "geometry": { "type": "Point", "coordinates": [7.4843, 50.5651] }
    },
    {
      "type": "Feature",
      "properties": {
        "id": "02377",
        "from_date": "1981-01-01T00:00:00Z",
        "to_date": "2022-07-05T00:00:00Z",
        "height": 362.0,
        "name": "Kandern-Gupf",
        "state": "Baden-Württemberg"
      },
      "geometry": { "type": "Point", "coordinates": [7.5895, 47.7001] }
    },
    {
      "type": "Feature",
      "properties": {
        "id": "02385",
        "from_date": "1974-04-01T00:00:00Z",
        "to_date": "2022-07-05T00:00:00Z",
        "height": 376.0,
        "name": "Idar-Oberstein",
        "state": "Rheinland-Pfalz"
      },
      "geometry": { "type": "Point", "coordinates": [7.3263, 49.6927] }
    },
    {
      "type": "Feature",
      "properties": {
        "id": "02410",
        "from_date": "1974-01-01T00:00:00Z",
        "to_date": "2022-07-05T00:00:00Z",
        "height": 364.0,
        "name": "Ingolstadt (Flugplatz)",
        "state": "Bayern"
      },
      "geometry": { "type": "Point", "coordinates": [11.5363, 48.7111] }
    },
    {
      "type": "Feature",
      "properties": {
        "id": "02429",
        "from_date": "1988-03-01T00:00:00Z",
        "to_date": "2022-07-05T00:00:00Z",
        "height": 21.0,
        "name": "Itzehoe",
        "state": "Schleswig-Holstein"
      },
      "geometry": { "type": "Point", "coordinates": [9.5696, 53.9897] }
    },
    {
      "type": "Feature",
      "properties": {
        "id": "02437",
        "from_date": "1971-01-01T00:00:00Z",
        "to_date": "2022-07-05T00:00:00Z",
        "height": 21.0,
        "name": "Schleswig-Jagel",
        "state": "Schleswig-Holstein"
      },
      "geometry": { "type": "Point", "coordinates": [9.5203, 54.457] }
    },
    {
      "type": "Feature",
      "properties": {
        "id": "02444",
        "from_date": "1824-01-01T00:00:00Z",
        "to_date": "2022-07-05T00:00:00Z",
        "height": 155.0,
        "name": "Jena (Sternwarte)",
        "state": "Thüringen"
      },
      "geometry": { "type": "Point", "coordinates": [11.583, 50.9251] }
    },
    {
      "type": "Feature",
      "properties": {
        "id": "02480",
        "from_date": "1947-01-01T00:00:00Z",
        "to_date": "2022-07-05T00:00:00Z",
        "height": 108.0,
        "name": "Kahl/Main",
        "state": "Bayern"
      },
      "geometry": { "type": "Point", "coordinates": [8.993, 50.0643] }
    },
    {
      "type": "Feature",
      "properties": {
        "id": "02483",
        "from_date": "1926-11-01T00:00:00Z",
        "to_date": "2022-07-05T00:00:00Z",
        "height": 839.0,
        "name": "Kahler Asten",
        "state": "Nordrhein-Westfalen"
      },
      "geometry": { "type": "Point", "coordinates": [8.4891, 51.1803] }
    },
    {
      "type": "Feature",
      "properties": {
        "id": "02485",
        "from_date": "2011-05-01T00:00:00Z",
        "to_date": "2022-07-05T00:00:00Z",
        "height": 489.0,
        "name": "Kaisersbach-Cronhütte",
        "state": "Baden-Württemberg"
      },
      "geometry": { "type": "Point", "coordinates": [9.6871, 48.917] }
    },
    {
      "type": "Feature",
      "properties": {
        "id": "02486",
        "from_date": "1901-01-01T00:00:00Z",
        "to_date": "2022-07-05T00:00:00Z",
        "height": 271.0,
        "name": "Kaiserslautern",
        "state": "Rheinland-Pfalz"
      },
      "geometry": { "type": "Point", "coordinates": [7.7557, 49.4262] }
    },
    {
      "type": "Feature",
      "properties": {
        "id": "02497",
        "from_date": "1947-01-01T00:00:00Z",
        "to_date": "2022-07-05T00:00:00Z",
        "height": 505.0,
        "name": "Kall-Sistig",
        "state": "Nordrhein-Westfalen"
      },
      "geometry": { "type": "Point", "coordinates": [6.5264, 50.5014] }
    },
    {
      "type": "Feature",
      "properties": {
        "id": "02559",
        "from_date": "1952-01-01T00:00:00Z",
        "to_date": "2022-07-05T00:00:00Z",
        "height": 705.0,
        "name": "Kempten",
        "state": "Bayern"
      },
      "geometry": { "type": "Point", "coordinates": [10.3348, 47.7233] }
    },
    {
      "type": "Feature",
      "properties": {
        "id": "02564",
        "from_date": "1974-01-01T00:00:00Z",
        "to_date": "2022-07-05T00:00:00Z",
        "height": 28.0,
        "name": "Kiel-Holtenau",
        "state": "Schleswig-Holstein"
      },
      "geometry": { "type": "Point", "coordinates": [10.1424, 54.3776] }
    },
    {
      "type": "Feature",
      "properties": {
        "id": "02573",
        "from_date": "1987-06-10T00:00:00Z",
        "to_date": "2022-07-05T00:00:00Z",
        "height": 470.0,
        "name": "Waging am See-Schnöbling",
        "state": "Bayern"
      },
      "geometry": { "type": "Point", "coordinates": [12.7717, 47.9588] }
    },
    {
      "type": "Feature",
      "properties": {
        "id": "02575",
        "from_date": "2007-05-22T00:00:00Z",
        "to_date": "2022-07-05T00:00:00Z",
        "height": 432.0,
        "name": "Kirchberg/Jagst-Herboldshausen",
        "state": "Baden-Württemberg"
      },
      "geometry": { "type": "Point", "coordinates": [9.98, 49.1804] }
    },
    {
      "type": "Feature",
      "properties": {
        "id": "02578",
        "from_date": "1865-01-01T00:00:00Z",
        "to_date": "2022-07-05T00:00:00Z",
        "height": 14.0,
        "name": "Kirchdorf/Poel",
        "state": "Mecklenburg-Vorpommern"
      },
      "geometry": { "type": "Point", "coordinates": [11.4341, 53.9995] }
    },
    {
      "type": "Feature",
      "properties": {
        "id": "02597",
        "from_date": "1946-01-01T00:00:00Z",
        "to_date": "2022-07-05T00:00:00Z",
        "height": 282.0,
        "name": "Kissingen, Bad",
        "state": "Bayern"
      },
      "geometry": { "type": "Point", "coordinates": [10.0792, 50.224] }
    },
    {
      "type": "Feature",
      "properties": {
        "id": "02600",
        "from_date": "1982-11-01T00:00:00Z",
        "to_date": "2022-07-05T00:00:00Z",
        "height": 193.0,
        "name": "Kitzingen",
        "state": "Bayern"
      },
      "geometry": { "type": "Point", "coordinates": [10.1781, 49.7363] }
    },
    {
      "type": "Feature",
      "properties": {
        "id": "02601",
        "from_date": "1936-01-01T00:00:00Z",
        "to_date": "2022-07-05T00:00:00Z",
        "height": 822.0,
        "name": "Kleiner Feldberg/Taunus",
        "state": "Hessen"
      },
      "geometry": { "type": "Point", "coordinates": [8.4469, 50.2218] }
    },
    {
      "type": "Feature",
      "properties": {
        "id": "02618",
        "from_date": "1958-01-01T00:00:00Z",
        "to_date": "2022-07-05T00:00:00Z",
        "height": 732.0,
        "name": "Kleiner Inselsberg",
        "state": "Thüringen"
      },
      "geometry": { "type": "Point", "coordinates": [10.4803, 50.8458] }
    },
    {
      "type": "Feature",
      "properties": {
        "id": "02627",
        "from_date": "1996-07-01T00:00:00Z",
        "to_date": "2022-07-05T00:00:00Z",
        "height": 128.0,
        "name": "Schipkau-Klettwitz",
        "state": "Brandenburg"
      },
      "geometry": { "type": "Point", "coordinates": [13.8845, 51.5554] }
    },
    {
      "type": "Feature",
      "properties": {
        "id": "02629",
        "from_date": "1904-10-01T00:00:00Z",
        "to_date": "2022-07-05T00:00:00Z",
        "height": 46.0,
        "name": "Kleve",
        "state": "Nordrhein-Westfalen"
      },
      "geometry": { "type": "Point", "coordinates": [6.0954, 51.7612] }
    },
    {
      "type": "Feature",
      "properties": {
        "id": "02638",
        "from_date": "1947-01-01T00:00:00Z",
        "to_date": "2022-07-05T00:00:00Z",
        "height": 974.0,
        "name": "Klippeneck",
        "state": "Baden-Württemberg"
      },
      "geometry": { "type": "Point", "coordinates": [8.7548, 48.1054] }
    },
    {
      "type": "Feature",
      "properties": {
        "id": "02641",
        "from_date": "1994-10-01T00:00:00Z",
        "to_date": "2022-07-05T00:00:00Z",
        "height": 90.0,
        "name": "Klitzschen bei Torgau",
        "state": "Sachsen"
      },
      "geometry": { "type": "Point", "coordinates": [12.9065, 51.5185] }
    },
    {
      "type": "Feature",
      "properties": {
        "id": "02667",
        "from_date": "1957-07-01T00:00:00Z",
        "to_date": "2022-07-05T00:00:00Z",
        "height": 92.0,
        "name": "Köln-Bonn",
        "state": "Nordrhein-Westfalen"
      },
      "geometry": { "type": "Point", "coordinates": [7.1575, 50.8646] }
    },
    {
      "type": "Feature",
      "properties": {
        "id": "02680",
        "from_date": "1951-01-01T00:00:00Z",
        "to_date": "2022-07-05T00:00:00Z",
        "height": 289.0,
        "name": "Königshofen, Bad",
        "state": "Bayern"
      },
      "geometry": { "type": "Point", "coordinates": [10.4456, 50.284] }
    },
    {
      "type": "Feature",
      "properties": {
        "id": "02700",
        "from_date": "1961-01-01T00:00:00Z",
        "to_date": "2022-07-05T00:00:00Z",
        "height": 416.0,
        "name": "Kösching",
        "state": "Bayern"
      },
      "geometry": { "type": "Point", "coordinates": [11.4872, 48.8302] }
    },
    {
      "type": "Feature",
      "properties": {
        "id": "02704",
        "from_date": "1993-10-01T00:00:00Z",
        "to_date": "2022-07-05T00:00:00Z",
        "height": 76.0,
        "name": "Köthen (Anhalt)",
        "state": "Sachsen-Anhalt"
      },
      "geometry": { "type": "Point", "coordinates": [12.0094, 51.7511] }
    },
    {
      "type": "Feature",
      "properties": {
        "id": "02708",
        "from_date": "1991-08-01T00:00:00Z",
        "to_date": "2022-07-05T00:00:00Z",
        "height": 742.0,
        "name": "Kohlgrub, Bad (Rosshof)",
        "state": "Bayern"
      },
      "geometry": { "type": "Point", "coordinates": [11.0805, 47.6652] }
    },
    {
      "type": "Feature",
      "properties": {
        "id": "02712",
        "from_date": "1959-07-01T00:00:00Z",
        "to_date": "2022-07-05T00:00:00Z",
        "height": 428.0,
        "name": "Konstanz",
        "state": "Baden-Württemberg"
      },
      "geometry": { "type": "Point", "coordinates": [9.1307, 47.6952] }
    },
    {
      "type": "Feature",
      "properties": {
        "id": "02750",
        "from_date": "1949-01-01T00:00:00Z",
        "to_date": "2022-07-05T00:00:00Z",
        "height": 310.0,
        "name": "Kronach",
        "state": "Bayern"
      },
      "geometry": { "type": "Point", "coordinates": [11.3209, 50.2524] }
    },
    {
      "type": "Feature",
      "properties": {
        "id": "02773",
        "from_date": "1974-01-01T00:00:00Z",
        "to_date": "2022-07-05T00:00:00Z",
        "height": 415.0,
        "name": "Kümmersbruck",
        "state": "Bayern"
      },
      "geometry": { "type": "Point", "coordinates": [11.9016, 49.4283] }
    },
    {
      "type": "Feature",
      "properties": {
        "id": "02794",
        "from_date": "1945-05-01T00:00:00Z",
        "to_date": "2022-07-05T00:00:00Z",
        "height": 40.0,
        "name": "Kyritz",
        "state": "Brandenburg"
      },
      "geometry": { "type": "Point", "coordinates": [12.4093, 52.9362] }
    },
    {
      "type": "Feature",
      "properties": {
        "id": "02796",
        "from_date": "2000-06-01T00:00:00Z",
        "to_date": "2022-07-05T00:00:00Z",
        "height": 41.0,
        "name": "Laage (Flugplatz)",
        "state": "Mecklenburg-Vorpommern"
      },
      "geometry": { "type": "Point", "coordinates": [12.279, 53.9156] }
    },
    {
      "type": "Feature",
      "properties": {
        "id": "02812",
        "from_date": "1950-01-01T00:00:00Z",
        "to_date": "2022-07-05T00:00:00Z",
        "height": 156.0,
        "name": "Lahr",
        "state": "Baden-Württemberg"
      },
      "geometry": { "type": "Point", "coordinates": [7.828, 48.3647] }
    },
    {
      "type": "Feature",
      "properties": {
        "id": "02814",
        "from_date": "1949-01-01T00:00:00Z",
        "to_date": "2022-07-05T00:00:00Z",
        "height": 687.0,
        "name": "Merklingen",
        "state": "Baden-Württemberg"
      },
      "geometry": { "type": "Point", "coordinates": [9.7644, 48.5122] }
    },
    {
      "type": "Feature",
      "properties": {
        "id": "02829",
        "from_date": "1969-01-01T00:00:00Z",
        "to_date": "2018-07-10T00:00:00Z",
        "height": 621.0,
        "name": "Landsberg (Flugplatz)",
        "state": "Bayern"
      },
      "geometry": { "type": "Point", "coordinates": [10.9144, 48.0772] }
    },
    {
      "type": "Feature",
      "properties": {
        "id": "02856",
        "from_date": "1993-06-01T00:00:00Z",
        "to_date": "2022-07-05T00:00:00Z",
        "height": 91.0,
        "name": "Langenlipsdorf",
        "state": "Brandenburg"
      },
      "geometry": { "type": "Point", "coordinates": [13.0878, 51.9173] }
    },
    {
      "type": "Feature",
      "properties": {
        "id": "02878",
        "from_date": "1947-04-01T00:00:00Z",
        "to_date": "2022-07-05T00:00:00Z",
        "height": 117.0,
        "name": "Lauchstädt, Bad",
        "state": "Sachsen-Anhalt"
      },
      "geometry": { "type": "Point", "coordinates": [11.8786, 51.3909] }
    },
    {
      "type": "Feature",
      "properties": {
        "id": "02886",
        "from_date": "1970-01-01T00:00:00Z",
        "to_date": "2022-07-05T00:00:00Z",
        "height": 539.0,
        "name": "Laupheim",
        "state": "Baden-Württemberg"
      },
      "geometry": { "type": "Point", "coordinates": [9.9097, 48.2175] }
    },
    {
      "type": "Feature",
      "properties": {
        "id": "02897",
        "from_date": "1990-08-30T00:00:00Z",
        "to_date": "2022-07-05T00:00:00Z",
        "height": 522.0,
        "name": "Lautertal-Hörgenau",
        "state": "Hessen"
      },
      "geometry": { "type": "Point", "coordinates": [9.2857, 50.5808] }
    },
    {
      "type": "Feature",
      "properties": {
        "id": "02905",
        "from_date": "1969-01-01T00:00:00Z",
        "to_date": "2022-07-05T00:00:00Z",
        "height": 550.0,
        "name": "Lechfeld",
        "state": "Bayern"
      },
      "geometry": { "type": "Point", "coordinates": [10.8507, 48.1849] }
    },
    {
      "type": "Feature",
      "properties": {
        "id": "02907",
        "from_date": "1974-11-01T00:00:00Z",
        "to_date": "2022-07-05T00:00:00Z",
        "height": 7.0,
        "name": "Leck",
        "state": "Schleswig-Holstein"
      },
      "geometry": { "type": "Point", "coordinates": [8.9514, 54.7903] }
    },
    {
      "type": "Feature",
      "properties": {
        "id": "02925",
        "from_date": "1957-01-01T00:00:00Z",
        "to_date": "2022-07-05T00:00:00Z",
        "height": 356.0,
        "name": "Leinefelde",
        "state": "Thüringen"
      },
      "geometry": { "type": "Point", "coordinates": [10.3123, 51.3932] }
    },
    {
      "type": "Feature",
      "properties": {
        "id": "02928",
        "from_date": "1863-12-01T00:00:00Z",
        "to_date": "2022-07-05T00:00:00Z",
        "height": 138.0,
        "name": "Leipzig-Holzhausen",
        "state": "Sachsen"
      },
      "geometry": { "type": "Point", "coordinates": [12.4462, 51.3151] }
    },
    {
      "type": "Feature",
      "properties": {
        "id": "02932",
        "from_date": "1934-01-01T00:00:00Z",
        "to_date": "2022-07-05T00:00:00Z",
        "height": 131.0,
        "name": "Leipzig/Halle",
        "state": "Sachsen"
      },
      "geometry": { "type": "Point", "coordinates": [12.2396, 51.4347] }
    },
    {
      "type": "Feature",
      "properties": {
        "id": "02947",
        "from_date": "1962-04-01T00:00:00Z",
        "to_date": "2022-07-05T00:00:00Z",
        "height": 286.0,
        "name": "Lennestadt-Theten",
        "state": "Nordrhein-Westfalen"
      },
      "geometry": { "type": "Point", "coordinates": [8.0348, 51.1333] }
    },
    {
      "type": "Feature",
      "properties": {
        "id": "02951",
        "from_date": "1994-10-01T00:00:00Z",
        "to_date": "2022-07-05T00:00:00Z",
        "height": 20.0,
        "name": "Lenzen/Elbe",
        "state": "Brandenburg"
      },
      "geometry": { "type": "Point", "coordinates": [11.4864, 53.1007] }
    },
    {
      "type": "Feature",
      "properties": {
        "id": "02953",
        "from_date": "1961-01-01T00:00:00Z",
        "to_date": "2022-07-05T00:00:00Z",
        "height": 854.0,
        "name": "Lenzkirch-Ruhbühl",
        "state": "Baden-Württemberg"
      },
      "geometry": { "type": "Point", "coordinates": [8.2308, 47.8597] }
    },
    {
      "type": "Feature",
      "properties": {
        "id": "02961",
        "from_date": "1998-01-01T00:00:00Z",
        "to_date": "2022-07-05T00:00:00Z",
        "height": 31.0,
        "name": "Leuchtturm Kiel",
        "state": "Schleswig-Holstein"
      },
      "geometry": { "type": "Point", "coordinates": [10.2737, 54.4996] }
    },
    {
      "type": "Feature",
      "properties": {
        "id": "02968",
        "from_date": "1945-01-01T00:00:00Z",
        "to_date": "2022-07-05T00:00:00Z",
        "height": 43.0,
        "name": "Köln-Stammheim",
        "state": "Nordrhein-Westfalen"
      },
      "geometry": { "type": "Point", "coordinates": [6.9777, 50.9894] }
    },
    {
      "type": "Feature",
      "properties": {
        "id": "02985",
        "from_date": "1991-01-01T00:00:00Z",
        "to_date": "2022-07-05T00:00:00Z",
        "height": 321.0,
        "name": "Lichtenhain-Mittelndorf",
        "state": "Sachsen"
      },
      "geometry": { "type": "Point", "coordinates": [14.2094, 50.9383] }
    },
    {
      "type": "Feature",
      "properties": {
        "id": "03015",
        "from_date": "1906-04-01T00:00:00Z",
        "to_date": "2022-07-05T00:00:00Z",
        "height": 98.0,
        "name": "Lindenberg",
        "state": "Brandenburg"
      },
      "geometry": { "type": "Point", "coordinates": [14.118, 52.2085] }
    },
    {
      "type": "Feature",
      "properties": {
        "id": "03023",
        "from_date": "1951-01-01T00:00:00Z",
        "to_date": "2016-12-31T00:00:00Z",
        "height": 22.0,
        "name": "Lingen",
        "state": "Niedersachsen"
      },
      "geometry": { "type": "Point", "coordinates": [7.3081, 52.5181] }
    },
    {
      "type": "Feature",
      "properties": {
        "id": "03028",
        "from_date": "1951-01-01T00:00:00Z",
        "to_date": "2022-07-05T00:00:00Z",
        "height": 157.0,
        "name": "Lippspringe, Bad",
        "state": "Nordrhein-Westfalen"
      },
      "geometry": { "type": "Point", "coordinates": [8.8388, 51.7854] }
    },
    {
      "type": "Feature",
      "properties": {
        "id": "03031",
        "from_date": "1980-12-01T00:00:00Z",
        "to_date": "2022-07-05T00:00:00Z",
        "height": 92.0,
        "name": "Lippstadt-Bökenförde",
        "state": "Nordrhein-Westfalen"
      },
      "geometry": { "type": "Point", "coordinates": [8.3945, 51.6336] }
    },
    {
      "type": "Feature",
      "properties": {
        "id": "03032",
        "from_date": "1937-01-01T00:00:00Z",
        "to_date": "2022-07-05T00:00:00Z",
        "height": 25.0,
        "name": "List auf Sylt",
        "state": "Schleswig-Holstein"
      },
      "geometry": { "type": "Point", "coordinates": [8.4125, 55.011] }
    },
    {
      "type": "Feature",
      "properties": {
        "id": "03034",
        "from_date": "1952-03-01T00:00:00Z",
        "to_date": "2022-07-05T00:00:00Z",
        "height": 496.0,
        "name": "Lobenstein, Bad",
        "state": "Thüringen"
      },
      "geometry": { "type": "Point", "coordinates": [11.635, 50.4505] }
    },
    {
      "type": "Feature",
      "properties": {
        "id": "03042",
        "from_date": "1993-07-01T00:00:00Z",
        "to_date": "2022-07-05T00:00:00Z",
        "height": 230.0,
        "name": "Löhnberg-Obershausen",
        "state": "Hessen"
      },
      "geometry": { "type": "Point", "coordinates": [8.2386, 50.5617] }
    },
    {
      "type": "Feature",
      "properties": {
        "id": "03044",
        "from_date": "1946-01-01T00:00:00Z",
        "to_date": "2018-05-31T00:00:00Z",
        "height": 22.0,
        "name": "Löningen",
        "state": "Niedersachsen"
      },
      "geometry": { "type": "Point", "coordinates": [7.7472, 52.7198] }
    },
    {
      "type": "Feature",
      "properties": {
        "id": "03083",
        "from_date": "1991-10-01T00:00:00Z",
        "to_date": "2022-07-05T00:00:00Z",
        "height": 57.0,
        "name": "Lübben-Blumenfelde",
        "state": "Brandenburg"
      },
      "geometry": { "type": "Point", "coordinates": [13.8797, 51.9267] }
    },
    {
      "type": "Feature",
      "properties": {
        "id": "03086",
        "from_date": "1985-03-01T00:00:00Z",
        "to_date": "2022-07-05T00:00:00Z",
        "height": 15.0,
        "name": "Lübeck-Blankensee",
        "state": "Schleswig-Holstein"
      },
      "geometry": { "type": "Point", "coordinates": [10.6989, 53.8025] }
    },
    {
      "type": "Feature",
      "properties": {
        "id": "03093",
        "from_date": "1954-12-01T00:00:00Z",
        "to_date": "2022-07-05T00:00:00Z",
        "height": 16.0,
        "name": "Lüchow",
        "state": "Niedersachsen"
      },
      "geometry": { "type": "Point", "coordinates": [11.1374, 52.9724] }
    },
    {
      "type": "Feature",
      "properties": {
        "id": "03098",
        "from_date": "1993-12-23T00:00:00Z",
        "to_date": "2022-07-05T00:00:00Z",
        "height": 387.0,
        "name": "Lüdenscheid",
        "state": "Nordrhein-Westfalen"
      },
      "geometry": { "type": "Point", "coordinates": [7.6425, 51.2452] }
    },
    {
      "type": "Feature",
      "properties": {
        "id": "03126",
        "from_date": "1881-01-01T00:00:00Z",
        "to_date": "2022-07-05T00:00:00Z",
        "height": 79.0,
        "name": "Magdeburg",
        "state": "Sachsen-Anhalt"
      },
      "geometry": { "type": "Point", "coordinates": [11.5827, 52.1029] }
    },
    {
      "type": "Feature",
      "properties": {
        "id": "03137",
        "from_date": "1948-01-01T00:00:00Z",
        "to_date": "2022-07-05T00:00:00Z",
        "height": 195.0,
        "name": "Mainz-Lerchenberg (ZDF)",
        "state": "Rheinland-Pfalz"
      },
      "geometry": { "type": "Point", "coordinates": [8.2139, 49.9656] }
    },
    {
      "type": "Feature",
      "properties": {
        "id": "03147",
        "from_date": "1953-01-01T00:00:00Z",
        "to_date": "2022-07-05T00:00:00Z",
        "height": 390.0,
        "name": "Mallersdorf-Pfaffenberg-Oberlindhart",
        "state": "Bayern"
      },
      "geometry": { "type": "Point", "coordinates": [12.2118, 48.7548] }
    },
    {
      "type": "Feature",
      "properties": {
        "id": "03155",
        "from_date": "1961-11-01T00:00:00Z",
        "to_date": "2022-07-05T00:00:00Z",
        "height": 413.0,
        "name": "Manderscheid-Sonnenhof",
        "state": "Rheinland-Pfalz"
      },
      "geometry": { "type": "Point", "coordinates": [6.8009, 50.1015] }
    },
    {
      "type": "Feature",
      "properties": {
        "id": "03158",
        "from_date": "1985-01-01T00:00:00Z",
        "to_date": "2022-07-05T00:00:00Z",
        "height": 12.0,
        "name": "Manschnow",
        "state": "Brandenburg"
      },
      "geometry": { "type": "Point", "coordinates": [14.5453, 52.5468] }
    },
    {
      "type": "Feature",
      "properties": {
        "id": "03164",
        "from_date": "1946-01-01T00:00:00Z",
        "to_date": "2022-07-05T00:00:00Z",
        "height": 187.0,
        "name": "Cölbe, Kr. Marburg-Biedenkopf",
        "state": "Hessen"
      },
      "geometry": { "type": "Point", "coordinates": [8.7745, 50.8492] }
    },
    {
      "type": "Feature",
      "properties": {
        "id": "03166",
        "from_date": "1955-08-01T00:00:00Z",
        "to_date": "2022-07-05T00:00:00Z",
        "height": 639.0,
        "name": "Marienberg",
        "state": "Sachsen"
      },
      "geometry": { "type": "Point", "coordinates": [13.1469, 50.6511] }
    },
    {
      "type": "Feature",
      "properties": {
        "id": "03167",
        "from_date": "1962-12-01T00:00:00Z",
        "to_date": "2022-07-05T00:00:00Z",
        "height": 547.0,
        "name": "Marienberg, Bad",
        "state": "Rheinland-Pfalz"
      },
      "geometry": { "type": "Point", "coordinates": [7.9603, 50.6621] }
    },
    {
      "type": "Feature",
      "properties": {
        "id": "03181",
        "from_date": "2021-08-01T00:00:00Z",
        "to_date": "2022-07-05T00:00:00Z",
        "height": 360.0,
        "name": "Markt Erlbach-Hagenhofen",
        "state": "Bayern"
      },
      "geometry": { "type": "Point", "coordinates": [10.6277, 49.4875] }
    },
    {
      "type": "Feature",
      "properties": {
        "id": "03196",
        "from_date": "1902-01-01T00:00:00Z",
        "to_date": "2022-07-05T00:00:00Z",
        "height": 81.0,
        "name": "Marnitz",
        "state": "Mecklenburg-Vorpommern"
      },
      "geometry": { "type": "Point", "coordinates": [11.9321, 53.3222] }
    },
    {
      "type": "Feature",
      "properties": {
        "id": "03204",
        "from_date": "1983-11-01T00:00:00Z",
        "to_date": "2022-07-05T00:00:00Z",
        "height": 429.0,
        "name": "Martinroda",
        "state": "Thüringen"
      },
      "geometry": { "type": "Point", "coordinates": [10.8815, 50.7335] }
    },
    {
      "type": "Feature",
      "properties": {
        "id": "03226",
        "from_date": "2006-08-01T00:00:00Z",
        "to_date": "2022-07-05T00:00:00Z",
        "height": 107.0,
        "name": "Aschersleben-Mehringen",
        "state": "Sachsen-Anhalt"
      },
      "geometry": { "type": "Point", "coordinates": [11.5109, 51.7259] }
    },
    {
      "type": "Feature",
      "properties": {
        "id": "03231",
        "from_date": "1979-01-01T00:00:00Z",
        "to_date": "2022-07-05T00:00:00Z",
        "height": 450.0,
        "name": "Meiningen",
        "state": "Thüringen"
      },
      "geometry": { "type": "Point", "coordinates": [10.3771, 50.5611] }
    },
    {
      "type": "Feature",
      "properties": {
        "id": "03234",
        "from_date": "1956-06-01T00:00:00Z",
        "to_date": "2022-07-05T00:00:00Z",
        "height": 158.0,
        "name": "Garsebach bei Meißen",
        "state": "Sachsen"
      },
      "geometry": { "type": "Point", "coordinates": [13.4328, 51.1294] }
    },
    {
      "type": "Feature",
      "properties": {
        "id": "03244",
        "from_date": "1961-01-01T00:00:00Z",
        "to_date": "2022-07-05T00:00:00Z",
        "height": 614.0,
        "name": "Memmingen",
        "state": "Bayern"
      },
      "geometry": { "type": "Point", "coordinates": [10.1384, 47.9821] }
    },
    {
      "type": "Feature",
      "properties": {
        "id": "03254",
        "from_date": "1973-01-01T00:00:00Z",
        "to_date": "2022-07-05T00:00:00Z",
        "height": 19.0,
        "name": "Meppen",
        "state": "Niedersachsen"
      },
      "geometry": { "type": "Point", "coordinates": [7.3176, 52.7155] }
    },
    {
      "type": "Feature",
      "properties": {
        "id": "03257",
        "from_date": "1947-01-01T00:00:00Z",
        "to_date": "2022-07-05T00:00:00Z",
        "height": 251.0,
        "name": "Mergentheim, Bad-Neunkirchen",
        "state": "Baden-Württemberg"
      },
      "geometry": { "type": "Point", "coordinates": [9.7622, 49.4773] }
    },
    {
      "type": "Feature",
      "properties": {
        "id": "03268",
        "from_date": "2000-06-01T00:00:00Z",
        "to_date": "2022-07-05T00:00:00Z",
        "height": 900.0,
        "name": "Meßstetten-Appental",
        "state": "Baden-Württemberg"
      },
      "geometry": { "type": "Point", "coordinates": [8.9433, 48.1694] }
    },
    {
      "type": "Feature",
      "properties": {
        "id": "03271",
        "from_date": "1941-01-01T00:00:00Z",
        "to_date": "2022-07-05T00:00:00Z",
        "height": 314.0,
        "name": "Metten",
        "state": "Bayern"
      },
      "geometry": { "type": "Point", "coordinates": [12.9189, 48.8548] }
    },
    {
      "type": "Feature",
      "properties": {
        "id": "03278",
        "from_date": "2003-01-01T00:00:00Z",
        "to_date": "2022-07-05T00:00:00Z",
        "height": 354.0,
        "name": "Metzingen",
        "state": "Baden-Württemberg"
      },
      "geometry": { "type": "Point", "coordinates": [9.2734, 48.5377] }
    },
    {
      "type": "Feature",
      "properties": {
        "id": "03284",
        "from_date": "1987-01-01T00:00:00Z",
        "to_date": "2022-07-05T00:00:00Z",
        "height": 240.0,
        "name": "Michelstadt",
        "state": "Hessen"
      },
      "geometry": { "type": "Point", "coordinates": [9.0085, 49.6692] }
    },
    {
      "type": "Feature",
      "properties": {
        "id": "03287",
        "from_date": "1987-10-01T00:00:00Z",
        "to_date": "2022-07-05T00:00:00Z",
        "height": 453.0,
        "name": "Michelstadt-Vielbrunn",
        "state": "Hessen"
      },
      "geometry": { "type": "Point", "coordinates": [9.0997, 49.7177] }
    },
    {
      "type": "Feature",
      "properties": {
        "id": "03289",
        "from_date": "1972-10-01T00:00:00Z",
        "to_date": "2022-07-05T00:00:00Z",
        "height": 356.0,
        "name": "Schmieritz-Weltwitz",
        "state": "Thüringen"
      },
      "geometry": { "type": "Point", "coordinates": [11.7838, 50.7281] }
    },
    {
      "type": "Feature",
      "properties": {
        "id": "03307",
        "from_date": "1937-01-01T00:00:00Z",
        "to_date": "2022-07-05T00:00:00Z",
        "height": 984.0,
        "name": "Mittenwald-Buckelwiesen",
        "state": "Bayern"
      },
      "geometry": { "type": "Point", "coordinates": [11.2653, 47.4779] }
    },
    {
      "type": "Feature",
      "properties": {
        "id": "03319",
        "from_date": "2006-09-01T00:00:00Z",
        "to_date": "2022-07-05T00:00:00Z",
        "height": 239.0,
        "name": "Röllbach",
        "state": "Bayern"
      },
      "geometry": { "type": "Point", "coordinates": [9.253, 49.7644] }
    },
    {
      "type": "Feature",
      "properties": {
        "id": "03321",
        "from_date": "2008-04-25T00:00:00Z",
        "to_date": "2022-07-05T00:00:00Z",
        "height": 77.0,
        "name": "Mönchengladbach-Hilderath",
        "state": "Nordrhein-Westfalen"
      },
      "geometry": { "type": "Point", "coordinates": [6.3609, 51.1313] }
    },
    {
      "type": "Feature",
      "properties": {
        "id": "03340",
        "from_date": "1938-01-01T00:00:00Z",
        "to_date": "2022-04-30T00:00:00Z",
        "height": 265.0,
        "name": "Montabaur",
        "state": "Rheinland-Pfalz"
      },
      "geometry": { "type": "Point", "coordinates": [7.8061, 50.4383] }
    },
    {
      "type": "Feature",
      "properties": {
        "id": "03348",
        "from_date": "1990-07-01T00:00:00Z",
        "to_date": "2022-07-05T00:00:00Z",
        "height": 240.0,
        "name": "Moringen-Lutterbeck",
        "state": "Niedersachsen"
      },
      "geometry": { "type": "Point", "coordinates": [9.8352, 51.7209] }
    },
    {
      "type": "Feature",
      "properties": {
        "id": "03362",
        "from_date": "1998-01-01T00:00:00Z",
        "to_date": "2022-07-05T00:00:00Z",
        "height": 243.0,
        "name": "Mühlacker",
        "state": "Baden-Württemberg"
      },
      "geometry": { "type": "Point", "coordinates": [8.8735, 48.9721] }
    },
    {
      "type": "Feature",
      "properties": {
        "id": "03366",
        "from_date": "1953-01-01T00:00:00Z",
        "to_date": "2022-07-05T00:00:00Z",
        "height": 406.0,
        "name": "Mühldorf",
        "state": "Bayern"
      },
      "geometry": { "type": "Point", "coordinates": [12.5024, 48.279] }
    },
    {
      "type": "Feature",
      "properties": {
        "id": "03376",
        "from_date": "1937-01-01T00:00:00Z",
        "to_date": "2022-07-05T00:00:00Z",
        "height": 63.0,
        "name": "Müncheberg",
        "state": "Brandenburg"
      },
      "geometry": { "type": "Point", "coordinates": [14.1232, 52.5176] }
    },
    {
      "type": "Feature",
      "properties": {
        "id": "03379",
        "from_date": "1954-06-01T00:00:00Z",
        "to_date": "2022-07-05T00:00:00Z",
        "height": 515.0,
        "name": "München-Stadt",
        "state": "Bayern"
      },
      "geometry": { "type": "Point", "coordinates": [11.5429, 48.1632] }
    },
    {
      "type": "Feature",
      "properties": {
        "id": "03402",
        "from_date": "1946-01-01T00:00:00Z",
        "to_date": "2022-07-05T00:00:00Z",
        "height": 755.0,
        "name": "Münsingen-Apfelstetten",
        "state": "Baden-Württemberg"
      },
      "geometry": { "type": "Point", "coordinates": [9.4837, 48.3851] }
    },
    {
      "type": "Feature",
      "properties": {
        "id": "03426",
        "from_date": "1936-05-18T00:00:00Z",
        "to_date": "2022-07-05T00:00:00Z",
        "height": 127.0,
        "name": "Muskau, Bad",
        "state": "Sachsen"
      },
      "geometry": { "type": "Point", "coordinates": [14.7008, 51.566] }
    },
    {
      "type": "Feature",
      "properties": {
        "id": "03442",
        "from_date": "1947-01-01T00:00:00Z",
        "to_date": "2022-07-05T00:00:00Z",
        "height": 149.0,
        "name": "Nauheim, Bad",
        "state": "Hessen"
      },
      "geometry": { "type": "Point", "coordinates": [8.7506, 50.3574] }
    },
    {
      "type": "Feature",
      "properties": {
        "id": "03484",
        "from_date": "1973-01-01T00:00:00Z",
        "to_date": "2022-07-05T00:00:00Z",
        "height": 380.0,
        "name": "Neuburg/Donau (Flugplatz)",
        "state": "Bayern"
      },
      "geometry": { "type": "Point", "coordinates": [11.2147, 48.7085] }
    },
    {
      "type": "Feature",
      "properties": {
        "id": "03485",
        "from_date": "1991-06-01T00:00:00Z",
        "to_date": "2022-07-05T00:00:00Z",
        "height": 486.0,
        "name": "Neuburg/Kammel-Langenhaslach",
        "state": "Bayern"
      },
      "geometry": { "type": "Point", "coordinates": [10.3773, 48.3115] }
    },
    {
      "type": "Feature",
      "properties": {
        "id": "03490",
        "from_date": "1948-01-01T00:00:00Z",
        "to_date": "2022-07-05T00:00:00Z",
        "height": 111.0,
        "name": "Neuenahr, Bad-Ahrweiler",
        "state": "Rheinland-Pfalz"
      },
      "geometry": { "type": "Point", "coordinates": [7.0853, 50.5346] }
    },
    {
      "type": "Feature",
      "properties": {
        "id": "03509",
        "from_date": "2004-10-01T00:00:00Z",
        "to_date": "2022-07-05T00:00:00Z",
        "height": 78.0,
        "name": "Menz",
        "state": "Brandenburg"
      },
      "geometry": { "type": "Point", "coordinates": [13.0421, 53.102] }
    },
    {
      "type": "Feature",
      "properties": {
        "id": "03513",
        "from_date": "1955-01-01T00:00:00Z",
        "to_date": "2022-07-05T00:00:00Z",
        "height": 845.0,
        "name": "Neuhaus am Rennweg",
        "state": "Thüringen"
      },
      "geometry": { "type": "Point", "coordinates": [11.1345, 50.5003] }
    },
    {
      "type": "Feature",
      "properties": {
        "id": "03527",
        "from_date": "1947-01-01T00:00:00Z",
        "to_date": "2022-07-05T00:00:00Z",
        "height": 500.0,
        "name": "Neukirchen-Hauptschwenda",
        "state": "Hessen"
      },
      "geometry": { "type": "Point", "coordinates": [9.405, 50.8923] }
    },
    {
      "type": "Feature",
      "properties": {
        "id": "03534",
        "from_date": "1981-03-01T00:00:00Z",
        "to_date": "2022-07-05T00:00:00Z",
        "height": 584.0,
        "name": "Neumarkt-Höhenberg",
        "state": "Bayern"
      },
      "geometry": { "type": "Point", "coordinates": [11.4881, 49.2713] }
    },
    {
      "type": "Feature",
      "properties": {
        "id": "03540",
        "from_date": "1992-09-01T00:00:00Z",
        "to_date": "2022-07-05T00:00:00Z",
        "height": 195.0,
        "name": "Neunkirchen-Seelscheid-Krawinkel",
        "state": "Nordrhein-Westfalen"
      },
      "geometry": { "type": "Point", "coordinates": [7.372, 50.8446] }
    },
    {
      "type": "Feature",
      "properties": {
        "id": "03545",
        "from_date": "1970-01-01T00:00:00Z",
        "to_date": "2022-07-05T00:00:00Z",
        "height": 236.0,
        "name": "Neunkirchen-Wellesweiler",
        "state": "Saarland"
      },
      "geometry": { "type": "Point", "coordinates": [7.2297, 49.344] }
    },